     2.11           OBSERVATION DATA    G (GPS)             RINEX VERSION / TYPE
teqc  2018Dec12     gpsops              20201107 00:20:09UTCPGM / RUN BY / DATE
Linux 2.6.32-573.12.1.x86_64|x86_64|gcc -static|Linux 64|=+ COMMENT
BIT 2 OF LLI FLAGS DATA COLLECTED UNDER A/S CONDITION       COMMENT
CHAN                                                        MARKER NAME
21611M002                                                   MARKER NUMBER
GGN                 Changchun Observatory,NAOC,CAS          OBSERVER / AGENCY
UC2200511014        ASHTECH UZ-12       CQ00                REC # / TYPE / VERS
CR6200503027        ASH701945E_M    NONE                    ANT # / TYPE
 -2674431.9143  3757145.2969  4391528.8732                  APPROX POSITION XYZ
        0.2500        0.0000        0.0000                  ANTENNA: DELTA H/E/N
     1     1                                                WAVELENGTH FACT L1/2
     7    L1    L2    P1    P2    C1    S1    S2            # / TYPES OF OBSERV
    30.0000                                                 INTERVAL
Forced Modulo Decimation to 30 seconds                      COMMENT
                                                            COMMENT
 SNR is mapped to RINEX snr flag value [0-9]                COMMENT
  L1 & L2: min(max(int(snr_dBHz/6), 0), 9)                  COMMENT
pseudorange smoothing corrections not applied               COMMENT
  2020    11     6     0     0    0.0000000     GPS         TIME OF FIRST OBS
                                                            END OF HEADER
 20 11  6  0  0  0.0000000  0  9G05G06G29G07G12G09G19G02G25
 -19219261.61649 -14923243.50649  21236016.1174   21236017.8554   21236015.829
        58.0004         54.0004
 -15815663.61848 -12274573.78548  21835575.2984   21835580.3424   21835574.958
        52.0004         48.0004
  -3642569.55148  -2782058.75747  24204794.5824   24204795.5904   24204794.430
        49.0004         45.0004
  -1289899.42346   -973476.15345  25429493.9074   25429498.2014   25429494.356
        40.0004         35.0004
   -439597.50548   -293381.35247  24856639.0514   24856641.8864   24856640.973
        48.0004         43.0004
 -12227721.62648  -9476855.94647  22741905.0154   22741909.6354   22741905.772
        49.0004         45.0004
  -3404096.55347  -2596369.13646  23980495.4574   23980497.4154   23980496.461
        44.0004         39.0004
 -20742056.39649 -16122429.12648  21168669.9774   21168670.3494   21168670.568
        56.0004         51.0004
   1060227.44548    848583.90847  24808282.5204   24808289.1904   24808281.734
        48.0004         43.0004
 20 11  6  0  0 30.0000000  0  9G05G06G29G07G12G09G19G02G25
 -19273833.39649 -14965766.97149  21225631.1144   21225633.2944   21225631.315
        58.0004         54.0004
 -15754515.93748 -12226926.24548  21847211.1804   21847216.8254   21847210.692
        52.0004         48.0004
  -3739189.32048  -2857346.89047  24186407.8854   24186408.8874   24186408.819
        49.0004         44.0004
  -1353489.20746  -1023026.60745  25417392.3594   25417396.8714   25417395.437
        40.0004         35.0004
   -353044.94548   -225937.85747  24873110.0164   24873113.6704   24873112.093
        48.0004         43.0004
 -12161761.64848  -9425458.56747  22754457.1744   22754461.6494   22754457.207
        49.0004         45.0004
  -3285733.33747  -2504138.09646  24003019.4224   24003021.2434   24003019.346
        44.0004         39.0004
 -20762805.17849 -16138597.01648  21164721.7244   21164722.3874   21164722.529
        56.0004         51.0004
   1113482.16448    890081.06947  24818416.5994   24818423.3894   24818415.991
        48.0004         43.0004
 20 11  6  0  1  0.0000000  0  9G05G06G29G07G12G09G19G02G25
 -19328057.88349 -15008019.81949  21215312.3654   21215314.6284   21215312.005
        58.0004         54.0004
 -15693073.11248 -12179048.72848  21858903.4324   21858908.7744   21858903.453
        52.0004         48.0004
  -3835527.42648  -2932415.54447  24168075.3194   24168076.1354   24168076.498
        49.0004         44.0004
  -1416872.74646  -1072416.30846  25405332.6274   25405338.3584   25405332.573
        40.0004         36.0004
   -266339.16047   -158375.00647  24889608.7204   24889612.3344   24889610.111
        47.0004         42.0004
 -12095338.90248  -9373700.58747  22767097.9244   22767101.7784   22767097.494
        49.0004         45.0004
  -3167240.56247  -2411806.12246  24025567.4204   24025568.9244   24025568.215
        44.0004         39.0004
 -20783263.54949 -16154538.61348  21160828.5854   21160828.7094   21160829.520
        56.0004         51.0004
   1167136.12848    931889.31147  24828626.2344   24828633.5364   24828625.684
        48.0004         43.0004
 20 11  6  0  1 30.0000000  0  9G05G06G29G07G12G09G19G02G25
 -19381935.20349 -15050002.14949  21205060.1324   21205062.0694   21205060.419
        58.0004         54.0004
 -15631335.51548 -12130941.51548  21870651.8034   21870656.9784   21870650.807
        52.0004         48.0004
  -3931581.13848  -3007262.58647  24149797.1694   24149798.3204   24149798.163
        49.0004         45.0004
  -1480047.42546  -1121643.25846  25393311.9984   25393312.9314   25393311.888
        40.0004         36.0004
   -179483.29947    -90695.18547  24906136.9444   24906140.0994   24906139.369
        47.0004         42.0004
 -12028455.66348  -9321583.78847  22779824.2484   22779829.4164   22779824.800
        49.0004         44.0004
  -3048620.80747  -2319375.17346  24048139.7214   24048143.2034   24048143.001
        44.0004         40.0004
 -20803430.54649 -16170253.16448  21156990.9044   21156991.2764   21156991.679
        56.0004         51.0004
   1221186.53847    974006.44647  24838911.8304   24838919.6034   24838912.307
        47.0004         43.0004
 20 11  6  0  2  0.0000000  0  9G05G06G29G07G12G09G19G02G25
 -19435465.18549 -15091713.82949  21194873.8134   21194875.7974   21194873.742
        58.0004         54.0004
 -15569303.32448 -12082604.75048  21882456.3394   21882461.1784   21882455.421
        52.0004         48.0004
  -4027347.33448  -3081885.58547  24131572.7204   24131575.4854   24131573.756
        50.0004         45.0004
  -1543010.17746  -1170704.99645  25381328.6084   25381333.3884   25381329.892
        40.0004         35.0004
    -92480.51447    -22900.86147  24922693.9104   24922696.5434   24922693.286
        47.0004         43.0004
 -11961114.20048  -9269109.93247  22792638.4654   22792644.0554   22792638.731
        49.0004         44.0004
  -2929876.18447  -2226846.95246  24070736.7444   24070737.7594   24070737.425
        44.0004         40.0004
 -20823304.92749 -16185739.70048  21153208.7154   21153209.1534   21153209.545
        56.0004         51.0004
   1275630.94747   1016430.61647  24849273.2184   24849278.6214   24849273.762
        47.0004         43.0004
 20 11  6  0  2 30.0000000  0  9G05G06G29G07G12G09G19G02G25
 -19488647.04249 -15133154.23949  21184753.5814   21184755.5234   21184753.811
        58.0004         54.0004
 -15506976.99448 -12034038.78747  21894316.4454   21894321.2254   21894316.102
        52.0004         47.0004
  -4122824.05648  -3156282.98847  24113403.8714   24113406.9904   24113403.593
        50.0004         45.0004
  -1605759.14056  -1219600.11055  25369385.9945   25369392.0395   25369387.643
        40.0004         35.0004
     -5334.24547     45005.25947  24939275.4454   24939281.0494   24939274.985
        47.0004         42.0004
 -11893316.89148  -9216280.88047  22805539.6934   22805545.8024   22805539.982
        49.0004         44.0004
  -2811009.88947  -2134223.91746  24093355.6824   24093358.3324   24093357.787
        45.0004         40.0004
 -20842885.36949 -16200997.19648  21149482.8784   21149483.1784   21149483.534
        56.0004         51.0004
   1330466.51347   1059159.58147  24859708.0064   24859713.1504   24859707.714
        47.0004         42.0004
 20 11  6  0  3  0.0000000  0  9G05G06G29G07G12G09G19G02G25
 -19541480.74949 -15174323.36749  21174699.4754   21174701.6844   21174699.339
        58.0004         54.0004
 -15444356.67648 -11985243.74347  21906233.1684   21906237.9664   21906232.359
        52.0004         47.0004
  -4218007.99748  -3230452.30547  24095291.4864   24095293.9834   24095291.090
        50.0004         45.0004
  -1668291.65846  -1268326.53345  25357489.3854   25357493.7044   25357488.482
        40.0004         35.0004
     81952.18847    113020.63947  24955886.9014   24955889.4734   24955885.936
        47.0004         42.0004
 -11825065.90648  -9163098.32047  22818527.8834   22818532.8114   22818527.609
        49.0004         44.0004
  -2692024.29447  -2041507.92046  24115998.0424   24116000.0574   24115999.742
        45.0004         41.0004
 -20862170.80149 -16216024.81048  21145812.7714   21145813.3404   21145813.796
        56.0004         51.0004
   1385690.79647   1102191.46347  24870215.5224   24870221.8464   24870215.421
        47.0004         42.0004
 20 11  6  0  3 30.0000000  0  9G05G06G29G07G12G09G19G02G25
 -19593966.20949 -15215221.12649  21164712.1124   21164714.0014   21164712.049
        58.0004         54.0004
 -15381442.96748 -11936220.08447  21918204.8644   21918209.6074   21918204.182
        52.0004         47.0004
  -4312896.47848  -3304391.39847  24077234.4434   24077236.9334   24077234.972
        50.0004         45.0004
  -1730604.97846  -1316882.14546  25345630.9804   25345633.2194   25345630.439
        40.0004         36.0004
    169375.42847    181142.60446  24972522.2884   24972525.8324   24972518.891
        46.0004         41.0004
 -11756363.78648  -9109564.23647  22831601.6514   22831606.3854   22831601.671
        49.0004         44.0004
  -2572922.10547  -1948701.07846  24138662.5784   24138664.7294   24138662.718
        46.0004         41.0004
 -20881159.93449 -16230821.54648  21142199.2034   21142199.8644   21142199.776
        56.0004         51.0004
   1441300.98147   1145524.04747  24880797.7694   24880804.3874   24880797.933
        47.0004         42.0004
 20 11  6  0  4  0.0000000  0  9G05G06G29G07G12G09G19G02G25
 -19646102.29349 -15255846.64349  21154790.7604   21154792.6954   21154790.410
        58.0004         54.0004
 -15318235.93348 -11886967.86647  21930232.6394   21930237.8054   21930232.058
        52.0004         47.0004
  -4407486.90848  -3378098.23647  24059235.0754   24059237.3824   24059234.681
        50.0004         45.0004
  -1792696.37846  -1365264.84246  25333815.1424   25333818.3554   25333815.602
        41.0004         36.0004
    256932.90147    249369.15246  24989183.0884   24989186.6454   24989181.588
        46.0004         41.0004
 -11687212.66948  -9055680.28047  22844761.5004   22844764.5324   22844761.697
        49.0004         44.0004
  -2453705.41347  -1855805.00646  24161348.8984   24161351.4084   24161348.714
        46.0004         41.0004
 -20899851.65449 -16245386.52748  21138642.3774   21138642.6774   21138642.773
        56.0004         51.0004
   1497294.53447   1189155.33347  24891453.5104   24891460.3464   24891454.908
        47.0004         43.0004
 20 11  6  0  4 30.0000000  0  9G05G06G29G07G12G09G19G02G25
 -19697889.23349 -15296200.10149  21144936.0064   21144937.8784   21144935.804
        58.0004         54.0004
 -15254736.05248 -11837487.44747  21942316.3304   21942322.2504   21942315.554
        52.0004         47.0004
  -4501776.12648  -3451570.34847  24041292.2504   24041294.8854   24041292.950
        50.0004         46.0004
  -1854563.40146  -1413472.76946  25322043.3744   25322043.6834   25322042.580
        41.0004         36.0004
    344621.24947    317697.70247  25005871.9744   25005875.3794   25005870.746
        47.0004         42.0004
 -11617615.01048  -9001448.36647  22858005.2544   22858009.3834   22858005.436
        49.0004         44.0004
  -2334376.92847  -1762821.82347  24184056.5424   24184058.7314   24184057.253
        46.0004         42.0004
 -20918244.79949 -16259718.85648  21135142.5084   21135142.8314   21135142.967
        56.0004         51.0004
   1553668.71247   1233083.19847  24902181.2244   24902187.4324   24902180.886
        47.0004         42.0004
 20 11  6  0  5  0.0000000  0  9G05G06G29G07G12G09G19G02G25
 -19749326.94749 -15336281.43449  21135147.7714   21135149.6664   21135147.764
        58.0004         54.0004
 -15190943.65948 -11787779.10747  21954455.2854   21954461.0314   21954454.979
        52.0004         47.0004
  -4595761.27748  -3524805.51447  24023407.5104   24023409.5304   24023407.836
        50.0004         46.0004
  -1916203.27846  -1461503.68546  25310312.3664   25310315.2194   25310311.996
        41.0004         36.0004
    432436.98647    386125.52547  25022581.7484   25022585.0544   25022580.724
        47.0004         42.0004
 -11547573.15548  -8946870.33247  22871332.8614   22871337.1624   22871333.576
        49.0004         44.0004
  -2214939.22247  -1669753.52946  24206784.5184   24206786.8894   24206784.669
        46.0004         41.0004
 -20936338.55349 -16273817.89348  21131699.2634   21131699.6984   21131699.851
        56.0004         51.0004
   1610420.80947   1277305.56847  24912979.7734   24912987.5854   24912980.306
        47.0004         42.0004
 20 11  6  0  5 30.0000000  0  9G05G06G29G07G12G09G19G02G25
 -19800414.94949 -15376090.26549  21125426.0254   21125428.0114   21125426.250
        59.0004         54.0004
 -15126859.12848 -11737843.12247  21966650.6824   21966655.7724   21966650.362
        52.0004         47.0004
  -4689439.79248  -3597801.74547  24005581.0184   24005582.3334   24005580.883
        50.0004         45.0004
  -1977613.25846  -1509355.54346  25298626.8994   25298629.0094   25298626.983
        41.0004         36.0004
    520376.77147    454650.00047  25039316.8894   25039318.5234   25039315.376
        46.0004         42.0004
 -11477089.45348  -8891948.00147  22884745.7214   22884751.1464   22884745.885
        49.0004         44.0004
  -2095395.07847  -1576602.30546  24229532.7144   24229536.0384   24229534.393
        46.0004         41.0004
 -20954131.17649 -16287682.28148  21128313.4024   21128313.8584   21128313.815
        56.0004         51.0004
   1667548.14847   1321820.33847  24923851.9704   24923859.5024   24923852.950
        47.0004         43.0004
 20 11  6  0  6  0.0000000  0  9G05G06G29G07G12G09G19G02G25
 -19851152.94549 -15415626.36149  21115770.8224   21115772.8964   21115770.758
        59.0004         54.0004
 -15062482.75948 -11687679.74947  21978900.8794   21978906.0234   21978900.202
        52.0004         47.0004
  -4782808.84848  -3670556.86047  23987813.8094   23987815.7374   23987811.836
        50.0004         45.0004
  -2038790.98546  -1557026.41246  25286983.9314   25286984.8914   25286984.590
        41.0004         36.0004
    608437.62247    523268.82147  25056073.6904   25056076.5284   25056074.339
        46.0004         42.0004
 -11406166.30548  -8836683.24447  22898241.9404   22898247.3884   22898241.467
        49.0004         44.0004
  -1975746.75947  -1483369.91346  24252301.5524   24252304.1294   24252302.754
        46.0004         41.0004
 -20971621.67949 -16301311.24948  21124985.1844   21124985.5664   21124985.853
        56.0004         51.0004
   1725048.02647   1366625.40047  24934794.0534   24934800.7714   24934793.234
        47.0004         43.0004
 20 11  6  0  6 30.0000000  0  9G05G06G29G07G12G09G19G02G25
 -19901540.60049 -15454889.46049  21106182.2974   21106184.6984   21106181.988
        59.0004         54.0004
 -14997814.97048 -11637289.28647  21991206.7214   21991211.6324   21991205.883
        52.0004         47.0004
  -4875866.11648  -3743069.00747  23970104.6984   23970106.6974   23970105.645
        50.0004         45.0004
  -2099733.83646  -1604514.26346  25275387.1714   25275390.9214   25275388.385
        41.0004         36.0004
    696616.37047    591979.50047  25072854.1884   25072855.6924   25072856.594
        46.0004         42.0004
 -11334806.09548  -8781077.92347  22911821.3194   22911826.6474   22911822.232
        49.0004         44.0004
  -1855997.01547  -1390058.48146  24275089.6784   24275091.3494   24275091.417
        46.0004         41.0004
 -20988808.78549 -16314703.80748  21121714.8184   21121714.9624   21121715.784
        56.0004         51.0004
   1782917.71148   1411718.61047  24945806.6664   24945812.5024   24945807.413
        48.0004         43.0004
 20 11  6  0  7  0.0000000  0  9G05G06G29G07G12G09G19G02G25
 -19951577.91249 -15493879.56849  21096660.8764   21096662.9084   21096660.523
        59.0004         54.0004
 -14932856.11448 -11586672.02947  22003567.7974   22003573.8214   22003567.533
        52.0004         47.0004
  -4968608.11148  -3815335.47947  23952456.3014   23952458.7804   23952455.225
        50.0004         46.0004
  -2160439.06446  -1651816.99746  25263835.5564   25263837.5744   25263834.799
        41.0004         37.0004
    784909.25747    660779.14546  25089655.6574   25089658.8564   25089655.903
        46.0004         41.0004
 -11263011.20848  -8725133.88547  22925484.5094   22925488.7374   22925484.065
        49.0004         44.0004
  -1736148.45047  -1296670.02946  24297895.7374   24297897.1384   24297896.341
        45.0004         40.0004
 -21005691.55549 -16327859.22148  21118501.7294   21118502.2294   21118502.516
        56.0004         51.0004
   1841154.47447   1457097.84847  24956888.5134   24956895.6764   24956886.361
        47.0004         42.0004
 20 11  6  0  7 30.0000000  0  9G05G06G29G07G12G09G19G02G25
 -20001264.37949 -15532596.28549  21087205.5624   21087207.5124   21087205.568
        59.0004         54.0004
 -14867606.53448 -11535828.22047  22015984.3544   22015990.0864   22015984.014
        52.0004         47.0004
  -5061032.31948  -3887354.35347  23934868.9754   23934871.5574   23934868.911
        50.0004         46.0004
  -2220904.32546  -1698932.78546  25252330.7684   25252333.6594   25252330.566
        41.0004         37.0004
    873313.89247    729665.84246  25106478.1464   25106481.3144   25106479.627
        46.0004         41.0004
 -11190784.00348  -8668852.97747  22939228.8814   22939233.1114   22939228.846
        49.0004         44.0004
  -1616203.74647  -1203206.64746  24320720.4964   24320723.4074   24320721.319
        44.0004         39.0004
 -21022268.69849 -16340776.48248  21115347.2994   21115347.5694   21115348.219
        56.0004         51.0004
   1899755.53447   1502760.95847  24968039.6514   24968046.9034   24968038.069
        47.0004         43.0004
 20 11  6  0  8  0.0000000  0  9G05G06G29G07G12G09G19G02G25
 -20050600.17949 -15571039.76449  21077817.3144   21077819.3134   21077816.799
        59.0004         54.0004
 -14802066.67348 -11484758.22947  22028456.4354   22028461.6294   22028455.510
        52.0004         47.0004
  -5153136.70848  -3959124.00547  23917341.6474   23917344.6734   23917342.793
        51.0004         46.0004
  -2281127.25246  -1745859.79346  25240870.2814   25240874.0324   25240870.450
        41.0004         36.0004
    961826.57247    798636.73047  25123320.5954   25123325.5384   25123322.414
        46.0004         42.0004
 -11118126.91448  -8612237.07747  22953054.5774   22953058.2574   22953055.356
        49.0004         44.0004
  -1496165.53147  -1109670.42646  24343563.2084   24343565.9234   24343563.478
        44.0004         39.0004
 -21038539.20149 -16353454.80548  21112251.0944   21112251.6664   21112251.729
        56.0004         51.0004
   1958718.20248   1548705.84347  24979259.9984   24979266.4304   24979259.823
        48.0004         43.0004
 20 11  6  0  8 30.0000000  0  9G05G06G29G07G12G09G19G02G25
 -20099584.61549 -15609209.44749  21068495.9344   21068497.8404   21068495.869
        59.0004         54.0004
 -14736236.86148 -11433462.28847  22040983.6954   22040988.6594   22040983.396
        52.0004         47.0004
  -5244917.33548  -4030641.37547  23899876.6624   23899879.5174   23899877.319
        50.0004         46.0004
  -2341104.83046  -1792595.63946  25229456.1484   25229457.4954   25229456.837
        41.0004         37.0004
   1050444.24747    867689.40446  25140183.6674   25140187.5694   25140183.665
        46.0004         41.0004
 -11045042.37048  -8555288.10347  22966962.0984   22966966.6884   22966962.324
        49.0004         44.0004
  -1376035.94347  -1016062.99246  24366423.1614   24366425.3644   24366423.653
        43.0004         38.0004
 -21054501.66649 -16365893.10148  21109213.6064   21109214.0234   21109214.056
        56.0004         51.0004
   2018039.74947   1594930.36447  24990548.6774   24990554.5954   24990551.205
        47.0004         42.0004
 20 11  6  0  9  0.0000000  0  9G05G06G29G07G12G09G19G02G25
 -20148217.42849 -15647105.13949  21059241.5124   21059243.3004   21059241.435
        59.0004         54.0004
 -14670117.51448 -11381940.73947  22053565.5614   22053570.8694   22053565.207
        52.0004         47.0004
  -5336371.64948  -4101904.48447  23882474.7994   23882476.5864   23882474.813
        51.0004         46.0004
  -2400834.49046  -1839138.32446  25218090.7854   25218092.3674   25218090.797
        41.0004         37.0004
   1139163.63647    936821.36647  25157067.4964   25157071.0224   25157069.457
        46.0004         42.0004
 -10971532.82148  -8498007.96247  22980951.4344   22980955.6724   22980950.385
        49.0004         44.0004
  -1255817.74247   -922386.54146  24389301.1074   24389301.6904   24389302.303
        42.0004         38.0004
 -21070155.06849 -16378090.56548  21106234.7714   21106235.5824   21106235.272
        56.0004         51.0004
   2077717.29147   1641432.28747  25001905.7354   25001912.0414   25001905.612
        47.0004         42.0004
 20 11  6  0  9 30.0000000  0  9G05G06G29G07G12G09G19G02G25
 -20196498.77349 -15684726.96049  21050054.0074   21050055.7404   21050053.529
        59.0004         54.0004
 -14603709.09048 -11330193.94347  22066203.1814   22066207.7224   22066202.327
        51.0004         47.0004
  -5427497.55148  -4172911.67647  23865133.7884   23865136.1634   23865133.200
        51.0004         46.0004
  -2460313.74346  -1885485.90646  25206772.9894   25206775.1504   25206771.078
        41.0004         37.0004
   1227981.75347   1006030.25647  25173970.2294   25173973.2834   25173971.638
        47.0004         42.0004
 -10897600.71048  -8440398.54647  22995019.5504   22995024.8324   22995019.508
        49.0004         44.0004
  -1135513.64047   -828643.13146  24412192.3604   24412195.4924   24412194.513
        43.0004         39.0004
 -21085498.34549 -16390046.37448  21103315.1174   21103315.8194   21103315.783
        56.0004         51.0004
   2137748.03547   1688209.44747  25013328.9434   25013335.0374   25013328.027
        47.0004         42.0004
 20 11  6  0 10  0.0000000  0  9G05G06G29G07G12G09G19G02G25
 -20244428.08849 -15722074.47149  21040932.8904   21040935.1154   21040932.590
        59.0004         54.0004
 -14537011.92848 -11278222.15247  22078893.7384   22078899.7294   22078893.638
        51.0004         46.0004
  -5518291.58848  -4243660.26847  23847855.7044   23847857.7274   23847856.729
        51.0004         46.0004
  -2519539.98446  -1931636.34746  25195501.4964   25195503.8104   25195500.508
        41.0004         37.0004
   1316895.26047   1075313.48147  25190890.4034   25190892.2524   25190891.554
        47.0004         42.0004
 -10823248.47048  -8382461.74947  23009168.6284   23009173.1344   23009168.566
        49.0004         44.0004
  -1015125.93647   -734834.57846  24435102.7134   24435104.8334   24435103.712
        44.0004         39.0004
 -21100530.18349 -16401759.50248  21100454.6824   21100455.2094   21100455.026
        56.0004         51.0004
   2198129.30247   1735259.70247  25024818.9914   25024824.5934   25024819.693
        47.0004         42.0004
 20 11  6  0 10 30.0000000  0  9G05G06G29G07G12G09G19G02G25
 -20292005.36649 -15759147.67149  21031879.6134   21031881.4184   21031878.964
        59.0004         54.0004
 -14470026.47748 -11226025.72347  22091640.9794   22091646.9324   22091640.046
        51.0004         46.0004
  -5608751.22148  -4314148.28547  23830641.1514   23830643.7054   23830641.588
        51.0004         46.0004
  -2578511.03747  -1977587.96046  25184279.5254   25184281.1544   25184279.405
        42.0004         37.0004
   1405900.97347   1144668.52347  25207827.2524   25207829.2764   25207827.981
        47.0004         42.0004
 -10748478.54548  -8324199.48447  23023396.5534   23023401.4564   23023396.375
        49.0004         44.0004
   -894657.15547   -640962.85846  24458026.1214   24458029.1844   24458028.576
        43.0004         38.0004
 -21115249.44549 -16413229.06748  21097653.7324   21097654.2574   21097654.567
        56.0004         51.0004
   2258858.24447   1782580.88447  25036374.9274   25036380.2294   25036376.285
        47.0004         42.0004
 20 11  6  0 11  0.0000000  0  9G05G06G29G07G12G09G19G02G25
 -20339230.33049 -15795946.34649  21022893.2004   21022895.0044   21022893.156
        59.0004         54.0004
 -14402753.10948 -11173604.94747  22104443.2184   22104448.6474   22104442.770
        51.0004         46.0004
  -5698873.99748  -4384373.83047  23813491.3294   23813493.5354   23813491.699
        51.0004         46.0004
  -2637223.75147  -2023338.25346  25173106.3124   25173110.3334   25173104.283
        42.0004         37.0004
   1494995.81147   1214093.04046  25224781.3104   25224783.8704   25224785.023
        46.0004         41.0004
 -10673293.36348  -8265613.63847  23037702.8064   23037708.3554   23037703.538
        48.0004         44.0004
   -774109.86147   -547029.94846  24480966.5064   24480967.8274   24480967.721
        43.0004         38.0004
 -21129655.04749 -16424454.21748  21094912.3524   21094913.0234   21094912.742
        56.0004         51.0004
   2319932.03747   1830170.84247  25047997.0694   25048002.2214   25047997.272
        47.0004         42.0004
 20 11  6  0 11 30.0000000  0  9G05G06G29G07G12G09G19G02G25
 -20386102.69749 -15832470.27349  21013973.4474   21013975.3104   21013973.372
        59.0004         54.0004
 -14335192.29648 -11120960.18247  22117300.0444   22117305.0094   22117299.591
        51.0004         47.0004
  -5788656.67248  -4454334.36247  23796406.3674   23796408.7034   23796405.765
        51.0004         46.0004
  -2695675.63046  -2068885.27746  25161983.9144   25161987.3784   25161982.348
        41.0004         37.0004
   1584176.58947   1283584.49246  25241752.9294   25241754.1454   25241755.020
        46.0004         41.0004
 -10597695.43948  -8206706.18747  23052088.4294   23052094.2744   23052088.329
        48.0004         43.0004
   -653486.71047   -453037.92446  24503920.2364   24503921.8424   24503921.075
        43.0004         39.0004
 -21143745.63149 -16435433.89848  21092231.1494   21092231.5204   21092231.519
        56.0004         52.0004
   2381347.94347   1878027.31046  25059684.9594   25059689.2644   25059683.249
        46.0004         41.0004
 20 11  6  0 12  0.0000000  0  9G05G06G29G07G12G09G19G02G25
 -20432622.28549 -15868719.30849  21005120.9864   21005122.5944   21005120.877
        59.0004         54.0004
 -14267344.50148 -11068091.80447  22130211.0904   22130215.7654   22130210.415
        51.0004         47.0004
  -5878096.56548  -4524027.77947  23779386.7584   23779389.0134   23779387.068
        51.0004         46.0004
  -2753864.38746  -2114227.21846  25150910.7274   25150914.4724   25150910.266
        41.0004         37.0004
   1673440.12947   1353140.44746  25258737.1004   25258741.4414   25258737.528
        46.0004         41.0004
 -10521687.27948  -8147479.07647  23066552.8154   23066557.7344   23066552.549
        48.0004         43.0004
   -532790.39747   -358988.90746  24526887.3434   24526889.1654   24526888.937
        44.0004         39.0004
 -21157520.15549 -16446167.29748  21089609.9814   21089610.4174   21089610.382
        56.0004         52.0004
   2443103.01547   1926148.09146  25071435.1014   25071441.5604   25071433.397
        46.0004         41.0004
 20 11  6  0 12 30.0000000  0  9G05G06G29G07G12G09G19G02G25
 -20478789.31449 -15904693.62949  20996335.7774   20996337.5184   20996335.663
        59.0004         54.0004
 -14199210.09448 -11015000.08747  22143176.7204   22143181.6314   22143176.506
        51.0004         47.0004
  -5967190.92348  -4593451.96747  23762432.8124   23762434.9664   23762432.552
        51.0004         46.0004
  -2811787.22446  -2159361.92846  25139889.3734   25139891.7184   25139889.239
        41.0004         37.0004
   1762783.29247   1422758.42746  25275739.2384   25275743.4824   25275738.834
        46.0004         41.0004
 -10445271.27148  -8087934.15347  23081094.8424   23081099.9834   23081095.166
        48.0004         44.0004
   -412023.12447   -264884.58746  24549869.5904   24549870.9124   24549870.314
        44.0004         40.0004
 -21170977.40849 -16456653.47248  21087049.1784   21087049.4834   21087050.037
        56.0004         52.0004
   2505194.47947   1974530.99146  25083251.6544   25083256.5834   25083249.999
        46.0004         41.0004
 20 11  6  0 13  0.0000000  0  8G05G06G29G07G09G19G02G25
 -20524602.98249 -15940392.59449  20987617.5244   20987619.6054   20987617.656
        59.0004         54.0004
 -14130789.58748 -10961685.44647  22156196.6394   22156201.3714   22156196.120
        51.0004         47.0004
  -6055936.97748  -4662604.74247  23745545.1904   23745547.1994   23745547.201
        51.0004         46.0004
  -2869441.65146  -2204287.45846  25128918.0464   25128921.9774   25128918.328
        41.0004         36.0004
 -10368450.01548  -8028073.45647  23095713.8054   23095717.6374   23095713.802
        48.0004         43.0004
   -291187.42847   -170726.95246  24572863.2584   24572865.3124   24572863.735
        44.0004         40.0004
 -21184116.47549 -16466891.70748  21084548.7614   21084549.3634   21084549.188
        56.0004         51.0004
   2567619.39947   2023173.73147  25095130.8814   25095136.4154   25095131.299
        46.0004         42.0004
 20 11  6  0 13 30.0000000  0  8G05G06G29G07G09G19G02G25
 -20570063.54649 -15975816.40949  20978966.8414   20978968.8234   20978966.656
        59.0004         54.0004
 -14062083.37448 -10908148.17447  22169271.5054   22169275.9014   22169271.725
        51.0004         47.0004
  -6144332.43048  -4731484.29947  23728723.9364   23728725.9234   23728725.103
        51.0004         47.0004
  -2926825.21346  -2249001.88646  25117997.9644   25117998.1104   25117999.651
        41.0004         37.0004
 -10291225.86448  -7967898.81947  23110409.1694   23110413.7334   23110409.436
        48.0004         43.0004
   -170286.11847    -76518.19846  24595870.2884   24595872.1064   24595871.599
        44.0004         39.0004
 -21196936.04049 -16476880.98248  21082108.9644   21082109.7284   21082109.761
        56.0004         51.0004
   2630375.10947   2072074.22647  25107072.9974   25107079.5734   25107072.981
        47.0004         43.0004
 20 11  6  0 14  0.0000000  0  8G05G06G29G07G09G19G02G25
 -20615170.50849 -16010964.69749  20970383.3484   20970385.3614   20970383.027
        59.0004         54.0004
 -13993091.93748 -10854388.64247  22182399.9604   22182405.0244   22182399.997
        51.0004         47.0004
  -6232373.76148  -4800087.91547  23711970.7304   23711972.8034   23711970.958
        52.0004         47.0004
  -2983935.59346  -2293503.40546  25107131.7234   25107132.7554   25107130.152
        41.0004         36.0004
 -10213601.43848  -7907412.27447  23125179.1694   23125185.3354   23125179.407
        48.0004         43.0004
    -49321.59747     17739.80046  24618888.9814   24618891.2434   24618888.869
        44.0004         39.0004
 -21209434.85449 -16486620.31948  21079730.8314   21079731.2754   21079731.456
        56.0004         52.0004
   2693458.57947   2121230.12347  25119077.7424   25119084.4794   25119078.272
        47.0004         42.0004
 20 11  6  0 14 30.0000000  0  8G05G06G29G07G09G19G02G25
 -20659923.78049 -16045837.38149  20961867.0914   20961868.9824   20961866.955
        59.0004         54.0004
 -13923815.72648 -10800407.20647  22195582.7354   22195587.6394   22195582.286
        51.0004         47.0004
  -6320058.83748  -4868413.93747  23695285.0734   23695286.5494   23695285.364
        52.0004         47.0004
  -3040770.26346  -2337790.06646  25096313.2684   25096318.4154   25096312.263
        41.0004         37.0004
 -10135579.11748  -7846615.69647  23140027.1714   23140033.1914   23140026.310
        48.0004         43.0004
     71703.48947    112044.98846  24641919.0134   24641920.6644   24641917.224
        43.0004         38.0004
 -21221612.01449 -16496109.01848  21077413.7814   21077414.0994   21077414.614
        56.0004         52.0004
   2756867.05347   2170639.26747  25131143.6694   25131149.6804   25131145.886
        47.0004         42.0004
 20 11  6  0 15  0.0000000  0  8G05G06G29G07G09G19G02G25
 -20704323.37649 -16080434.47349  20953417.9194   20953420.0534   20953418.088
        59.0004         54.0004
 -13854255.22048 -10746204.24747  22208819.4924   22208824.3794   22208819.300
        51.0004         47.0004
  -6407384.72948  -4936460.08747  23678666.8514   23678669.0314   23678666.426
        52.0004         47.0004
  -3097326.70846  -2381859.93646  25085551.6354   25085555.9394   25085554.419
        41.0004         36.0004
 -10057161.52048  -7785511.09947  23154950.6734   23154954.6134   23154951.273
        48.0004         43.0004
    192786.46147    206395.27846  24664960.2384   24664962.8594   24664961.317
        43.0004         38.0004
 -21233466.39949 -16505346.20248  21075157.7064   21075158.4734   21075158.290
        56.0004         52.0004
   2820597.69047   2220299.44147  25143271.7254   25143277.1854   25143272.594
        47.0004         42.0004
 20 11  6  0 15 30.0000000  0  9G05G06G29G07G12G09G19G02G25
 -20748369.15149 -16114755.85749  20945036.4704   20945038.4284   20945035.965
        59.0004         54.0004
 -13784410.97748 -10691780.19747  22222110.3764   22222115.5404   22222109.897
        51.0004         46.0004
  -6494348.40448  -5004223.99947  23662117.9604   23662120.2364   23662118.328
        51.0004         47.0004
  -3153602.48746  -2425711.07846  25074843.1914   25074846.1134   25074841.859
        41.0004         36.0004
                                                                  25378034.071

  -9978351.20748  -7724100.47647  23169947.6784   23169951.6514   23169947.842
        48.0004         43.0004
    313924.90047    300788.82846  24688012.3844   24688014.4064   24688013.164
        43.0004         38.0004
 -21244996.74049 -16514330.88548  21072963.6224   21072964.4434   21072964.188
        56.0004         52.0004
   2884647.45647   2270208.28746  25155459.6554   25155465.2394   25155460.721
        46.0004         41.0004
 20 11  6  0 16  0.0000000  0  9G05G06G29G07G12G09G19G02G25
 -20792060.96149 -16148801.41949  20936721.9384   20936724.0154   20936721.502
        59.0004         54.0004
 -13714283.38748 -10637135.35347  22235454.9994   22235460.6914   22235454.340
        51.0004         46.0004
  -6580947.68848  -5071703.95247  23645638.7664   23645641.1024   23645638.845
        51.0004         47.0004
  -3209595.07146  -2469341.59146  25064189.3804   25064189.3354   25064189.269
        41.0004         36.0004
    127258.95149     63800.67347  25395124.5584   25395126.4984   25395125.086
        55.0004         43.0004
  -9899150.59848  -7662385.72847  23185019.0714   23185023.3374   23185019.116
        48.0004         43.0004
    435116.73047    395223.97146  24711075.1054   24711077.6494   24711074.199
        42.0004         38.0004
 -21256201.98749 -16523062.25048  21070831.6454   21070831.8924   21070832.234
        56.0004         52.0004
   2949013.51347   2320363.59946  25167707.1954   25167714.5384   25167706.438
        46.0004         41.0004
 20 11  6  0 16 30.0000000  0  9G05G06G29G07G12G09G19G02G25
 -20835398.78449 -16182571.15049  20928475.2114   20928476.8794   20928474.969
        59.0004         54.0004
 -13643872.88948 -10582270.07347  22248853.6234   22248858.7724   22248853.456
        51.0004         46.0004
  -6667179.28748  -5138897.40147  23629228.9594   23629231.7124   23629228.890
        52.0004         47.0004
  -3265301.93246  -2512749.44746  25053586.3674   25053588.8234   25053586.000
        41.0004         36.0004
    217125.14048    133826.20647  25412224.0754   25412227.6354   25412224.612
        51.0004         43.0004
  -9819562.21448  -7600368.81047  23200164.4944   23200168.6764   23200163.956
        48.0004         43.0004
    556359.31547    489698.63546  24734145.2984   24734149.1474   24734146.094
        42.0004         37.0004
 -21267080.75449 -16531539.21548  21068761.4544   21068761.6744   21068761.933
        56.0004         52.0004
   3013693.11847   2370763.24147  25180015.8924   25180022.8554   25180015.741
        46.0004         42.0004
 20 11  6  0 17  0.0000000  0  9G05G06G29G07G12G09G19G02G25
 -20878382.35949 -16216064.83249  20920295.6764   20920297.6014   20920295.524
        59.0004         54.0004
 -13573180.13748 -10527184.84547  22262306.0954   22262311.3974   22262305.076
        51.0004         46.0004
  -6753040.59448  -5205802.29847  23612890.2924   23612892.6344   23612889.635
        52.0004         47.0004
  -3320720.35946  -2555932.57746  25043043.9744   25043045.6154   25043043.047
        41.0004         37.0004
    307042.53448    203891.64347  25429334.8214   25429338.1664   25429335.167
        48.0004         43.0004
  -9739588.70748  -7538051.80647  23215382.1844   23215386.8014   23215382.527
        48.0004         43.0004
    677649.69847    584210.55846  24757227.2864   24757229.8624   24757228.188
        42.0004         38.0004
 -21277632.29449 -16539761.20148  21066753.5884   21066753.9194   21066754.182
        56.0004         52.0004
   3078683.08247   2421404.70446  25192382.9164   25192389.8194   25192383.599
        46.0004         41.0004
 20 11  6  0 17 30.0000000  0  9G05G06G29G07G12G09G19G02G25
 -20921011.34749 -16249282.21249  20912183.3184   20912185.7174   20912183.472
        59.0004         55.0004
 -13502205.55348 -10471880.00047  22275812.0634   22275817.8504   22275812.034
        51.0004         46.0004
  -6838529.07948  -5272416.71647  23596623.2434   23596624.4224   23596623.752
        52.0004         47.0004
  -3375848.31546  -2598889.34546  25032551.2324   25032553.3684   25032549.356
        41.0004         36.0004
    397008.21348    273994.73947  25446453.9934   25446458.4024   25446453.971
        48.0004         42.0004
  -9659232.48848  -7475436.58247  23230673.5854   23230678.9554   23230674.338
        48.0004         43.0004
    798985.35747    678757.75746  24780316.3794   24780318.8854   24780316.207
        43.0004         38.0004
 -21287855.52549 -16547727.36148  21064808.0084   21064808.3274   21064808.796
        56.0004         52.0004
   3143980.72347   2472285.96246  25204809.1974   25204816.5204   25204808.042
        46.0004         41.0004
 20 11  6  0 18  0.0000000  0  9G05G06G29G07G12G09G19G02G25
 -20963285.49549 -16282223.09849  20904139.2074   20904141.3584   20904138.866
        59.0004         55.0004
 -13430949.61648 -10416355.92947  22289372.4084   22289377.0574   22289371.873
        51.0004         46.0004
  -6923642.04648  -5338738.49147  23580425.8594   23580428.1324   23580426.078
        52.0004         47.0004
  -3430683.11846  -2641617.74646  25022115.2094   25022120.5654   25022114.708
        41.0004         37.0004
    487018.89547    344132.89446  25463582.9254   25463585.5904   25463581.792
        46.0004         41.0004
  -9578496.15548  -7412525.15647  23246037.3024   23246041.6274   23246037.930
        48.0004         43.0004
    920364.07347    773338.51046  24803414.2014   24803417.9754   24803414.929
        43.0004         38.0004
 -21297749.17649 -16555436.70748  21062925.0514   21062926.0014   21062926.265
        56.0004         52.0004
   3209583.12447   2523404.69747  25217293.7894   25217300.0054   25217294.108
        46.0004         42.0004
 20 11  6  0 18 30.0000000  0  9G05G06G29G07G12G09G19G02G25
 -21005205.12349 -16314887.72949  20896162.1754   20896164.1404   20896162.286
        59.0004         55.0004
 -13359412.85748 -10360613.03647  22302984.8244   22302989.8774   22302984.753
        50.0004         46.0004
  -7008377.02548  -5404765.74647  23564301.2604   23564303.2564   23564302.277
        52.0004         47.0004
  -3485222.63446  -2684116.05746  25011737.3244   25011740.6274   25011737.581
        41.0004         37.0004
    577071.47747    414303.70246  25480718.9924   25480723.7054   25480717.233
        46.0004         41.0004
  -9497382.27448  -7349319.53347  23261473.6384   23261476.7994   23261474.055
        48.0004         43.0004
   1041783.25147    867950.78246  24826520.3244   24826522.0014   24826521.861
        43.0004         38.0004
 -21307311.78449 -16562888.09448  21061105.4494   21061106.1734   21061105.617
        56.0004         52.0004
   3275487.24047   2574758.44347  25229834.6884   25229840.1784   25229834.669
        46.0004         42.0004
 20 11  6  0 19  0.0000000  0 10G05G06G29G07G12G09G19G13G02G25
 -21046770.01149 -16347275.93949  20888252.4244   20888254.5614   20888252.448
        59.0004         54.0004
 -13287595.79348 -10304651.71847  22316650.6294   22316656.4054   22316651.257
        50.0004         46.0004
  -7092730.56148  -5470495.76547  23548249.3824   23548251.7894   23548248.881
        52.0004         47.0004
  -3539464.26146  -2726382.28346  25001415.5234   25001417.7684   25001415.069
        41.0004         36.0004
    667162.99847    484504.85546  25497862.3054   25497866.0994   25497861.071
        46.0004         41.0004
  -9415893.37948  -7285821.69647  23276980.3664   23276983.9734   23276980.423
        48.0004         43.0004
   1163240.37047    962592.62246  24849631.8964   24849634.4404   24849633.755
        43.0004         38.0004
   -282599.69048   -136937.04946  23960347.9684   23960350.4494   23960347.827
        51.0004         36.0004
 -21316542.55449 -16570080.91048  21059348.7114   21059349.3094   21059349.538
        56.0004         52.0004
   3341690.16447   2626345.08847  25242432.7764   25242440.1314   25242431.102
        46.0004         42.0004
 20 11  6  0 19 30.0000000  0 10G05G06G29G07G12G09G19G13G02G25
 -21087979.98349 -16379387.59149  20880410.2344   20880412.3454   20880410.210
        59.0004         54.0004
 -13215499.00848 -10248472.43247  22330370.6184   22330375.6044   22330369.612
        50.0004         46.0004
  -7176700.08048  -5535926.55547  23532270.5614   23532273.3634   23532270.188
        52.0004         47.0004
  -3593405.49046  -2768414.43246  24991150.8684   24991154.2434   24991152.784
        41.0004         37.0004
    757290.16147    554733.77246  25515013.7564   25515015.6104   25515015.577
        46.0004         41.0004
  -9334031.98748  -7222033.60847  23292556.3984   23292561.4744   23292556.209
        48.0004         43.0004
   1284732.98447   1057262.11946  24872751.8164   24872754.0374   24872751.292
        43.0004         38.0004
   -398714.09847   -227415.70346  23938251.9234   23938254.5194   23938251.826
        46.0004         36.0004
 -21325440.50549 -16577014.38648  21057655.6684   21057656.1084   21057656.837
        56.0004         52.0004
   3408189.00047   2678162.29846  25255085.2034   25255092.3694   25255084.045
        46.0004         41.0004
 20 11  6  0 20  0.0000000  0 10G05G06G29G07G12G09G19G13G02G25
 -21128834.91749 -16411222.59849  20872636.2134   20872638.0124   20872635.783
        59.0004         55.0004
 -13143122.99648 -10192075.56947  22344143.4594   22344149.1454   22344142.831
        50.0004         46.0004
  -7260283.23248  -5601056.29047  23516365.2234   23516367.3314   23516365.933
        52.0004         47.0004
  -3647043.74947  -2810210.51746  24980944.6014   24980947.5844   24980944.109
        42.0004         37.0004
    847450.38147    624988.42946  25532171.0674   25532173.9294   25532171.925
        45.0004         40.0004
  -9251800.78548  -7157957.36047  23308205.1844   23308210.0064   23308204.376
        48.0004         43.0004
   1406258.45847   1151957.21046  24895876.9694   24895880.4404   24895877.706
        43.0004         38.0004
   -514712.69547   -317804.16846  23916176.6754   23916181.3074   23916178.288
        43.0004         36.0004
 -21334004.50349 -16583687.64548  21056026.2734   21056026.4924   21056026.946
        56.0004         52.0004
   3474980.74347   2730207.73747  25267797.4724   25267803.9114   25267795.824
        46.0004         42.0004
 20 11  6  0 20 30.0000000  0 10G05G06G29G07G12G09G19G13G02G25
 -21169334.78749 -16442780.93249  20864929.4524   20864931.1934   20864929.514
        59.0004         55.0004
 -13070468.31248 -10135461.56647  22357969.1334   22357974.1484   22357968.790
        50.0004         46.0004
  -7343477.16148  -5665882.74047  23500533.8274   23500535.7804   23500534.675
        52.0004         47.0004
  -3700376.72647  -2851768.72346  24970796.4674   24970799.1204   24970796.095
        42.0004         37.0004
    937639.92747    695266.00946  25549334.5734   25549335.0344   25549335.928
        45.0004         40.0004
  -9169202.26948  -7093594.89647  23323922.6014   23323927.6514   23323922.922
        48.0004         43.0004
   1527814.57647   1246676.15546  24919009.0054   24919009.9364   24919009.637
        43.0004         38.0004
   -630592.87747   -408100.35446  23894126.3624   23894128.4764   23894126.014
        42.0004         37.0004
 -21342233.18049 -16590099.60848  21054460.0804   21054460.6854   21054460.793
        56.0004         52.0004
   3542062.57847   2782479.21147  25280562.6934   25280569.0504   25280562.978
        47.0004         42.0004
 20 11  6  0 21  0.0000000  0 10G05G06G29G07G12G09G19G13G02G25
 -21209479.30949 -16474062.36949  20857290.0844   20857291.9904   20857289.989
        59.0004         55.0004
 -12997535.55948 -10078630.90047  22371848.3904   22371853.3014   22371847.804
        50.0004         45.0004
  -7426279.50248  -5730404.03948  23484776.6564   23484779.3854   23484776.294
        52.0004         48.0004
  -3753402.24047  -2893087.34746  24960705.2674   24960707.7944   24960706.338
        42.0004         38.0004
   1027856.01647    765564.18846  25566500.8474   25566503.0664   25566501.238
        45.0004         40.0004
  -9086239.04947  -7028948.24747  23339710.2174   23339715.1874   23339708.608
        47.0004         43.0004
   1649398.46247   1341416.74346  24942146.6654   24942147.8674   24942147.764
        43.0004         38.0004
   -746351.87146   -498302.11546  23872097.2394   23872100.6394   23872097.297
        41.0004         37.0004
 -21350125.87849 -16596249.77148  21052958.3184   21052958.8884   21052958.947
        56.0004         52.0004
   3609431.31947   2834974.28847  25293382.4094   25293389.2324   25293384.201
        47.0004         42.0004
 20 11  6  0 21 30.0000000  0 11G05G06G29G07G30G12G09G19G13G02G25
 -21249268.67749 -16505067.06249  20849717.8424   20849720.2444   20849717.767
        59.0004         55.0004
 -12924325.20048 -10021583.91847  22385779.9184   22385784.2854   22385779.565
        50.0004         45.0004
  -7508686.96348  -5794617.63548  23469095.4294   23469098.4424   23469095.736
        52.0004         48.0004
  -3806117.75547  -2934164.41046  24950675.0994   24950676.6924   24950675.125
        42.0004         38.0004
   -211479.43848   -124068.69046  25191805.3164   25191812.2014   25191805.516
        48.0004         37.0004
   1118095.71747    835880.79646  25583674.3264   25583675.7534   25583673.716
        45.0004         40.0004
  -9002913.68947  -6964019.41847  23355566.0214   23355571.9494   23355566.405
        47.0004         43.0004
   1771007.55747   1436176.97446  24965287.7184   24965289.7044   24965287.965
        43.0004         39.0004
   -861987.23447   -588407.50546  23850094.0974   23850097.1114   23850093.937
        42.0004         38.0004
 -21357681.19349 -16602137.03948  21051520.7264   21051521.1564   21051521.533
        56.0004         52.0004
   3677084.23147   2887690.79747  25306256.2174   25306262.6324   25306257.729
        47.0004         42.0004
 20 11  6  0 22  0.0000000  0 11G05G06G29G07G30G12G09G19G13G02G25
 -21288702.70049 -16535794.86649  20842213.9894   20842216.2054   20842213.650
        59.0004         55.0004
 -12850837.78848  -9964321.04447  22399763.7504   22399768.7524   22399763.294
        50.0004         45.0004
  -7590697.02248  -5858521.57648  23453489.5114   23453492.4414   23453490.011
        53.0004         48.0004
  -3858520.88947  -2974998.04646  24940701.8834   24940703.5184   24940700.637
        43.0004         38.0004
   -290215.96247   -185421.61446  25176821.9784   25176828.5744   25176822.894
        44.0004         37.0004
   1208355.89147    906213.36846  25600849.4424   25600854.2264   25600849.502
        45.0004         40.0004
  -8919228.65347  -6898810.31847  23371491.7254   23371496.6384   23371491.736
        47.0004         43.0004
   1892639.81447   1530955.26746  24988432.6614   24988434.1364   24988433.716
        43.0004         39.0004
   -977495.96147   -678414.23446  23828113.7624   23828117.0724   23828113.470
        42.0004         38.0004
 -21364898.00949 -16607760.54248  21050147.1794   21050147.9274   21050147.608
        56.0004         52.0004
   3745018.27047   2940626.38746  25319183.2584   25319188.8634   25319183.827
        46.0004         41.0004
 20 11  6  0 22 30.0000000  0 11G05G06G29G07G30G12G09G19G13G02G25
 -21327781.43049 -16566245.81949  20834777.8154   20834779.9134   20834777.407
        59.0004         55.0004
 -12777073.97148  -9906842.79447  22413800.9254   22413805.9514   22413800.151
        50.0004         45.0004
  -7672307.18148  -5922113.91148  23437959.9244   23437961.8324   23437960.141
        53.0004         48.0004
  -3910609.20647  -3015586.37646  24930788.0774   24930793.7214   24930788.387
        43.0004         38.0004
   -368847.53947   -246692.76646  25161858.4684   25161864.7374   25161858.251
        42.0004         37.0004
   1298633.23147    976559.31946  25618027.7534   25618031.8174   25618029.320
        44.0004         39.0004
  -8835186.66447  -6833323.06347  23387484.0194   23387489.0424   23387483.975
        47.0004         43.0004
   2014292.30947   1625749.31946  25011582.7294   25011583.8954   25011583.627
        43.0004         38.0004
  -1092875.49247   -768320.31646  23806157.5224   23806159.6084   23806158.683
        42.0004         38.0004
 -21371775.31449 -16613119.48948  21048838.3374   21048839.1554   21048838.866
        56.0004         52.0004
   3813230.45847   2993778.66346  25332164.0544   25332171.1064   25332165.002
        46.0004         41.0004
 20 11  6  0 23  0.0000000  0 11G05G06G29G07G30G12G09G19G13G02G25
 -21366504.75249 -16596419.83549  20827409.0534   20827410.8034   20827408.768
        59.0004         55.0004
 -12703034.28748  -9849149.58047  22427890.2304   22427894.4464   22427889.631
        50.0004         45.0004
  -7753514.70748  -5985392.50448  23422506.7774   23422508.8414   23422506.693
        53.0004         48.0004
  -3962380.38047  -3055927.57646  24920937.8184   24920939.6484   24920937.522
        43.0004         39.0004
   -447371.41446   -307880.03446  25146916.9794   25146920.5124   25146914.655
        41.0004         36.0004
   1388925.25847   1046916.66046  25635209.3924   25635216.0774   25635210.985
        43.0004         38.0004
  -8750790.18947  -6767559.61547  23403544.8214   23403549.1904   23403545.016
        47.0004         43.0004
   2135962.92747   1720557.51746  25034735.2114   25034737.2974   25034736.559
        43.0004         38.0004
  -1208123.01747   -858123.51246  23784227.2784   23784229.0634   23784226.199
        42.0004         38.0004
 -21378312.11049 -16618213.10748  21047594.7134   21047595.0874   21047595.260
        56.0004         52.0004
   3881717.94557   3047145.44556  25345195.3635   25345203.5635   25345195.956
        45.0004         41.0004
 20 11  6  0 23 30.0000000  0 11G05G06G29G07G30G12G09G19G13G02G25
 -21404872.60049 -16626316.86049  20820107.7234   20820109.6884   20820107.619
        59.0004         55.0004
 -12628719.24548  -9791241.80947  22442031.5404   22442037.0764   22442031.217
        50.0004         45.0004
  -7834316.78148  -6048355.16048  23407130.5294   23407133.4124   23407129.637
        53.0004         48.0004
  -4013831.96847  -3096019.72046  24911148.2594   24911150.9404   24911147.249
        44.0004         39.0004
   -525784.63846   -368981.11245  25131995.9934   25131999.2414   25131994.538
        40.0004         35.0004
   1479228.30947   1117282.65746  25652393.6584   25652398.6834   25652393.363
        43.0004         38.0004
  -8666041.86047  -6701521.99547  23419671.8014   23419676.0064   23419671.126
        47.0004         43.0004
   2257648.99947   1815377.74946  25057891.7444   25057893.8274   25057892.517
        43.0004         38.0004
  -1323235.86147   -947821.77446  23762319.9634   23762323.6234   23762323.184
        43.0004         38.0004
 -21384507.28149 -16623040.51848  21046415.7434   21046416.4004   21046417.054
        56.0004         52.0004
   3950477.51447   3100724.26546  25358279.9284   25358287.8254   25358280.797
        46.0004         41.0004
 20 11  6  0 24  0.0000000  0 10G05G06G29G07G30G09G19G13G02G25
 -21442884.88649 -16655936.82749  20812874.4234   20812876.1254   20812873.939
        59.0004         55.0004
 -12554129.64648  -9733120.08047  22456225.1254   22456231.0524   22456224.944
        50.0004         45.0004
  -7914711.31248  -6111000.24748  23391831.6484   23391833.9094   23391831.110
        53.0004         48.0004
  -4064961.87347  -3135861.20846  24901417.5994   24901421.3764   24901417.635
        44.0004         39.0004
   -604084.48246   -429993.85845  25117093.0234   25117098.5924   25117094.138
        40.0004         35.0004
  -8580944.45547  -6635212.36247  23435864.8504   23435869.7954   23435865.286
        47.0004         42.0004
   2379348.08247   1910208.10746  25081049.0824   25081051.9444   25081051.588
        42.0004         37.0004
  -1438211.24447  -1037412.94146  23740442.8444   23740443.7604   23740442.786
        43.0004         38.0004
 -21390359.87549 -16627600.98648  21045301.7944   21045302.5004   21045302.548
        56.0004         52.0004
   4019506.28747   3154512.88146  25371417.2264   25371423.6254   25371417.930
        46.0004         41.0004
 20 11  6  0 24 30.0000000  0 10G05G06G29G07G30G09G19G13G02G25
 -21480541.52149 -16685279.66649  20805708.5594   20805710.3714   20805708.566
        59.0004         55.0004
 -12479265.88648  -9674784.72547  22470471.7464   22470476.8244   22470470.930
        50.0004         45.0004
  -7994695.08248  -6173325.26348  23376611.5624   23376613.4454   23376612.828
        53.0004         48.0004
  -4115767.37847  -3175449.91146  24891749.7054   24891752.6114   24891749.256
        44.0004         39.0004
   -682267.83046   -490915.84145  25102215.6054   25102221.7444   25102216.036
        40.0004         35.0004
  -8495500.28247  -6568632.49847  23452124.4954   23452128.3754   23452125.011
        47.0004         42.0004
   2501057.53346   2005046.53946  25104211.0434   25104213.7584   25104212.533
        41.0004         36.0004
  -1553046.41347  -1126894.83846  23718589.2364   23718591.9954   23718590.449
        43.0004         38.0004
 -21395868.62049 -16631893.52148  21044253.8414   21044254.4124   21044254.330
        56.0004         52.0004
   4088801.31147   3208508.93246  25384602.2084   25384609.1534   25384604.254
        46.0004         41.0004
 20 11  6  0 25  0.0000000  0 10G05G06G29G07G30G09G19G13G02G25
 -21517842.42249 -16714345.30449  20798610.2294   20798612.4764   20798610.299
        59.0004         55.0004
 -12404128.64448  -9616236.27247  22484769.8644   22484775.0964   22484768.855
        50.0004         45.0004
  -8074265.71148  -6235328.35848  23361469.4534   23361471.2974   23361469.411
        53.0004         48.0004
  -4166246.35247  -3214784.14246  24882143.5114   24882145.7954   24882144.190
        44.0004         39.0004
   -760331.90546   -551744.98345  25087361.6604   25087366.8174   25087361.353
        40.0004         35.0004
  -8409712.11347  -6501784.60347  23468449.5114   23468453.9834   23468449.309
        47.0004         42.0004
   2622775.27646   2099891.43146  25127374.5784   25127375.7054   25127374.861
        41.0004         36.0004
  -1667738.95047  -1216265.61046  23696764.7344   23696767.5454   23696764.434
        43.0004         39.0004
 -21401032.59349 -16635917.40548  21043271.2034   21043271.6924   21043271.772
        56.0004         52.0004
   4158359.47247   3262710.08746  25397840.2404   25397846.2544   25397840.569
        46.0004         41.0004
 20 11  6  0 25 30.0000000  0  9G05G06G29G07G30G09G19G13G02
 -21554788.10649 -16743134.15349  20791579.6654   20791582.1994   20791579.438
        59.0004         55.0004
 -12328718.40748  -9557475.09747  22499119.9204   22499125.5504   22499119.748
        50.0004         45.0004
  -8153420.35248  -6297007.29348  23346407.2364   23346409.1874   23346406.957
        53.0004         48.0004
  -4216396.46647  -3253862.07946  24872600.4284   24872603.8574   24872600.876
        44.0004         39.0004
   -838273.60246   -612478.72846  25072527.4274   25072535.3784   25072527.675
        40.0004         36.0004
  -8323582.38647  -6434670.56047  23484838.6994   23484844.1964   23484838.502
        47.0004         42.0004
   2744498.57746   2194740.69446  25150536.1174   25150540.2164   25150538.463
        41.0004         36.0004
  -1782286.07447  -1305523.06746  23674967.0564   23674969.9164   23674967.094
        44.0004         39.0004
 -21405850.62349 -16639671.71948  21042354.0474   21042354.7854   21042354.893
        56.0004         52.0004
 20 11  6  0 26  0.0000000  0 10G05G06G29G07G30G09G19G13G02G25
 -21591377.77849 -16771645.58449  20784616.8564   20784619.2754   20784616.656
        59.0004         55.0004
 -12253035.97848  -9498501.81947  22513522.2604   22513527.7874   22513521.477
        50.0004         45.0004
  -8232156.34048  -6358360.00948  23331423.7524   23331426.3694   23331424.223
        53.0004         48.0004
  -4266215.31947  -3292681.86946  24863119.7544   24863122.3634   24863119.796
        44.0004         39.0004
   -916090.36246   -673115.14446  25057720.7344   25057726.3294   25057721.818
        41.0004         36.0004
  -8237113.88747  -6367292.54847  23501293.7884   23501299.7894   23501293.790
        47.0004         42.0004
   2866224.90146   2289592.29246  25173699.7994   25173702.4744   25173702.019
        41.0004         36.0004
  -1896684.87447  -1394664.95246  23653197.6904   23653200.2444   23653197.561
        44.0004         39.0004
 -21410321.79949 -16643155.76248  21041503.3054   21041504.0894   21041503.710
        56.0004         52.0004
   4298253.97047   3371718.62246  25424461.2664   25424467.0954   25424460.525
        46.0004         41.0004
 20 11  6  0 26 30.0000000  0 10G05G06G29G07G30G09G19G13G02G25
 -21627611.54349 -16799879.68749  20777722.2084   20777724.1194   20777721.680
        59.0004         55.0004
 -12177081.85448  -9439316.82247  22527975.7034   22527981.8354   22527975.105
        50.0004         45.0004
  -8310471.04848  -6419384.45348  23316520.9544   23316523.8364   23316521.895
        53.0004         48.0004
  -4315700.61247  -3331241.72446  24853703.0744   24853705.8904   24853703.574
        44.0004         39.0004
   -993779.04246   -733651.78346  25042939.5734   25042944.8954   25042937.741
        41.0004         36.0004
  -8150309.11447  -6299652.50547  23517812.3274   23517818.4004   23517812.202
        47.0004         42.0004
