% program   : RTKPOST ver.2.4.2
% inp file  : D:\Tongji_study\my_GNSS\GNSS_programming\edata\obs\chan3100.20o
% inp file  : D:\Tongji_study\my_GNSS\GNSS_programming\edata\sat_obit\brdc3100.20n
% obs start : 2020/11/05 00:00:00.0 GPST (week2130 345600.0s)
% obs end   : 2020/11/05 23:59:30.0 GPST (week2130 431970.0s)
% pos mode  : ppp-static
% solution  : forward
% elev mask : 15.0 deg
% dynamics  : off
% tidecorr  : off
% tropo opt : sbas
% ephemeris : broadcast
% antenna1  :                       ( 0.0000  0.0000  0.0000)
%
% (lat/lon/height=WGS84/ellipsoidal,Q=1:fix,2:float,3:sbas,4:dgps,5:single,6:ppp,ns=# of satellites)
%  GPST                  latitude(deg) longitude(deg)  height(m)   Q  ns   sdn(m)   sde(m)   sdu(m)  sdne(m)  sdeu(m)  sdun(m) age(s)  ratio
2020/11/04 23:59:59.999   43.790674007  125.444225980   272.7285   6   6   2.9625   2.5846   5.4459   1.0979   0.3846   1.3681   0.00    0.0
2020/11/05 00:00:29.999   43.790680170  125.444224007   272.7232   6   6   2.0987   1.8301   3.8549   0.7797   0.3027   0.9688   0.00    0.0
2020/11/05 00:00:59.999   43.790680997  125.444222981   272.3646   6   6   1.7161   1.4960   3.1486   0.6392   0.2696   0.7913   0.00    0.0
2020/11/05 00:01:29.999   43.790681024  125.444223583   272.7370   6   6   1.4883   1.2970   2.7272   0.5558   0.2514   0.6855   0.00    0.0
2020/11/05 00:01:59.999   43.790680857  125.444224857   272.7454   6   6   1.3330   1.1613   2.4396   0.4991   0.2397   0.6132   0.00    0.0
2020/11/05 00:02:29.999   43.790680008  125.444223846   272.7050   6   6   1.2186   1.0612   2.2271   0.4574   0.2316   0.5599   0.00    0.0
2020/11/05 00:02:59.999   43.790679609  125.444223663   272.6098   6   6   1.1297   0.9835   2.0620   0.4251   0.2257   0.5185   0.00    0.0
2020/11/05 00:03:29.999   43.790680408  125.444222108   272.5053   6   6   1.0582   0.9209   1.9289   0.3992   0.2210   0.4851   0.00    0.0
2020/11/05 00:03:59.999   43.790680465  125.444222659   272.5382   6   6   0.9991   0.8692   1.8186   0.3779   0.2174   0.4575   0.00    0.0
2020/11/05 00:04:29.999   43.790679924  125.444223749   272.6825   6   6   0.9491   0.8255   1.7252   0.3599   0.2144   0.4342   0.00    0.0
2020/11/05 00:04:59.999   43.790679606  125.444223326   272.6534   6   6   0.9062   0.7879   1.6449   0.3445   0.2119   0.4142   0.00    0.0
2020/11/05 00:05:29.999   43.790679669  125.444223145   272.6849   6   6   0.8688   0.7552   1.5748   0.3311   0.2098   0.3967   0.00    0.0
2020/11/05 00:05:59.999   43.790679850  125.444223708   272.6685   6   6   0.8359   0.7263   1.5130   0.3194   0.2080   0.3814   0.00    0.0
2020/11/05 00:06:29.999   43.790680438  125.444223879   272.5229   6   6   0.8066   0.7007   1.4579   0.3090   0.2064   0.3677   0.00    0.0
2020/11/05 00:06:59.999   43.790680676  125.444223119   272.4833   6   6   0.7804   0.6777   1.4084   0.2997   0.2050   0.3555   0.00    0.0
2020/11/05 00:07:29.999   43.790680766  125.444223259   272.4510   6   6   0.7567   0.6569   1.3636   0.2914   0.2038   0.3445   0.00    0.0
2020/11/05 00:07:59.999   43.790680325  125.444222649   272.3458   6   6   0.7351   0.6380   1.3228   0.2838   0.2027   0.3345   0.00    0.0
2020/11/05 00:08:29.999   43.790680089  125.444223144   272.3888   6   6   0.7154   0.6207   1.2855   0.2769   0.2017   0.3254   0.00    0.0
2020/11/05 00:08:59.999   43.790679586  125.444223032   272.3840   6   6   0.6973   0.6048   1.2511   0.2706   0.2008   0.3170   0.00    0.0
2020/11/05 00:09:29.999   43.790679646  125.444223574   272.3855   6   6   0.6807   0.5902   1.2193   0.2649   0.2000   0.3093   0.00    0.0
2020/11/05 00:09:59.999   43.790679723  125.444223128   272.2855   6   6   0.6652   0.5766   1.1898   0.2595   0.1992   0.3022   0.00    0.0
2020/11/05 00:10:29.999   43.790679624  125.444222955   272.2573   6   6   0.6509   0.5640   1.1623   0.2546   0.1985   0.2956   0.00    0.0
2020/11/05 00:10:59.999   43.790679729  125.444222731   272.1672   6   6   0.6375   0.5523   1.1367   0.2500   0.1978   0.2894   0.00    0.0
2020/11/05 00:11:29.999   43.790679760  125.444222811   272.1219   6   6   0.6250   0.5413   1.1126   0.2458   0.1972   0.2837   0.00    0.0
2020/11/05 00:11:59.999   43.790679611  125.444222702   272.1264   6   6   0.6133   0.5310   1.0900   0.2418   0.1966   0.2783   0.00    0.0
2020/11/05 00:12:29.999   43.790679579  125.444222518   272.1086   6   6   0.6023   0.5213   1.0688   0.2381   0.1961   0.2733   0.00    0.0
2020/11/05 00:12:59.999   43.790679747  125.444222693   272.1383   6   6   0.5919   0.5122   1.0487   0.2346   0.1956   0.2686   0.00    0.0
2020/11/05 00:13:29.999   43.790679944  125.444222772   272.1276   6   6   0.5821   0.5035   1.0296   0.2313   0.1951   0.2642   0.00    0.0
2020/11/05 00:13:59.999   43.790679754  125.444223031   272.1506   6   6   0.5728   0.4954   1.0116   0.2282   0.1946   0.2600   0.00    0.0
2020/11/05 00:14:29.999   43.790679801  125.444222988   272.1278   6   6   0.5640   0.4877   0.9945   0.2253   0.1942   0.2561   0.00    0.0
2020/11/05 00:14:59.999   43.790679972  125.444223206   272.1022   6   5   0.5602   0.4803   0.9831   0.2227   0.1939   0.2658   0.00    0.0
2020/11/05 00:15:29.999   43.790680151  125.444223201   272.0666   6   5   0.5566   0.4733   0.9723   0.2202   0.1938   0.2745   0.00    0.0
2020/11/05 00:15:59.999   43.790680290  125.444223227   272.0491   6   5   0.5531   0.4667   0.9620   0.2180   0.1937   0.2823   0.00    0.0
2020/11/05 00:16:29.999   43.790680412  125.444223003   272.0122   6   5   0.5497   0.4604   0.9521   0.2159   0.1938   0.2893   0.00    0.0
2020/11/05 00:16:59.999   43.790680259  125.444223086   272.0536   6   5   0.5465   0.4543   0.9426   0.2139   0.1938   0.2957   0.00    0.0
2020/11/05 00:17:29.999   43.790680246  125.444223067   272.0798   6   5   0.5434   0.4485   0.9336   0.2122   0.1940   0.3014   0.00    0.0
2020/11/05 00:17:59.999   43.790680296  125.444223178   272.1006   6   5   0.5404   0.4430   0.9248   0.2105   0.1942   0.3067   0.00    0.0
2020/11/05 00:18:29.999   43.790680433  125.444223291   272.0939   6   5   0.5375   0.4377   0.9164   0.2090   0.1944   0.3115   0.00    0.0
2020/11/05 00:18:59.999   43.790680352  125.444222927   272.0835   6   5   0.5347   0.4326   0.9083   0.2076   0.1947   0.3159   0.00    0.0
2020/11/05 00:19:29.999   43.790680410  125.444222747   272.0733   6   5   0.5319   0.4277   0.9005   0.2063   0.1950   0.3199   0.00    0.0
2020/11/05 00:19:59.999   43.790680393  125.444222590   272.0507   6   5   0.5293   0.4231   0.8930   0.2051   0.1954   0.3236   0.00    0.0
2020/11/05 00:20:29.999   43.790680369  125.444222454   272.0239   6   5   0.5267   0.4185   0.8857   0.2040   0.1957   0.3270   0.00    0.0
2020/11/05 00:20:59.999   43.790680432  125.444222245   272.0023   6   5   0.5242   0.4142   0.8786   0.2030   0.1961   0.3301   0.00    0.0
2020/11/05 00:21:29.999   43.790680275  125.444222311   272.0262   6   5   0.5218   0.4100   0.8718   0.2021   0.1966   0.3330   0.00    0.0
2020/11/05 00:21:59.999   43.790680299  125.444222109   272.0051   6   5   0.5194   0.4060   0.8651   0.2012   0.1970   0.3356   0.00    0.0
2020/11/05 00:22:29.999   43.790680257  125.444222067   272.0120   6   5   0.5171   0.4021   0.8587   0.2004   0.1975   0.3380   0.00    0.0
2020/11/05 00:22:59.999   43.790680253  125.444221989   272.0143   6   5   0.5148   0.3984   0.8524   0.1997   0.1979   0.3403   0.00    0.0
2020/11/05 00:23:29.999   43.790680275  125.444222056   271.9986   6   5   0.5126   0.3947   0.8463   0.1991   0.1984   0.3423   0.00    0.0
2020/11/05 00:23:59.999   43.790680179  125.444222027   271.9448   6   6   0.5050   0.3909   0.8357   0.1953   0.1951   0.3345   0.00    0.0
2020/11/05 00:24:29.999   43.790679988  125.444221869   271.8836   6   6   0.4978   0.3872   0.8254   0.1918   0.1921   0.3270   0.00    0.0
2020/11/05 00:24:59.999   43.790679873  125.444221862   271.8059   6   6   0.4908   0.3836   0.8156   0.1884   0.1893   0.3200   0.00    0.0
2020/11/05 00:25:29.999   43.790679939  125.444221888   271.8264   6   6   0.4842   0.3801   0.8062   0.1853   0.1867   0.3133   0.00    0.0
2020/11/05 00:25:59.999   43.790679832  125.444221710   271.8153   6   6   0.4778   0.3768   0.7971   0.1823   0.1842   0.3069   0.00    0.0
2020/11/05 00:26:29.999   43.790680080  125.444221834   271.8225   6   6   0.4717   0.3735   0.7884   0.1795   0.1820   0.3009   0.00    0.0
2020/11/05 00:26:59.999   43.790679964  125.444221805   271.7983   6   6   0.4658   0.3704   0.7799   0.1769   0.1799   0.2951   0.00    0.0
2020/11/05 00:27:29.999   43.790680253  125.444221786   271.7949   6   6   0.4601   0.3673   0.7718   0.1743   0.1780   0.2897   0.00    0.0
2020/11/05 00:27:59.999   43.790680286  125.444221812   271.7691   6   6   0.4546   0.3643   0.7639   0.1719   0.1762   0.2844   0.00    0.0
2020/11/05 00:28:29.999   43.790680183  125.444221900   271.7798   6   7   0.4493   0.3608   0.7550   0.1699   0.1773   0.2792   0.00    0.0
2020/11/05 00:28:59.999   43.790680105  125.444221939   271.7829   6   7   0.4442   0.3573   0.7464   0.1679   0.1783   0.2741   0.00    0.0
2020/11/05 00:29:29.999   43.790680188  125.444221814   271.7815   6   7   0.4393   0.3540   0.7382   0.1660   0.1792   0.2694   0.00    0.0
2020/11/05 00:29:59.999   43.790680183  125.444221790   271.7691   6   7   0.4346   0.3508   0.7303   0.1642   0.1800   0.2648   0.00    0.0
2020/11/05 00:30:29.999   43.790680264  125.444221853   271.7652   6   7   0.4300   0.3476   0.7226   0.1624   0.1807   0.2605   0.00    0.0
2020/11/05 00:30:59.999   43.790680368  125.444221906   271.7590   6   7   0.4255   0.3446   0.7153   0.1607   0.1814   0.2564   0.00    0.0
2020/11/05 00:31:29.999   43.790680324  125.444221928   271.7381   6   7   0.4212   0.3417   0.7081   0.1590   0.1819   0.2525   0.00    0.0
2020/11/05 00:31:59.999   43.790680210  125.444221730   271.7114   6   7   0.4170   0.3388   0.7013   0.1574   0.1824   0.2487   0.00    0.0
2020/11/05 00:32:29.999   43.790680486  125.444221761   271.6986   6   7   0.4130   0.3361   0.6946   0.1559   0.1829   0.2451   0.00    0.0
2020/11/05 00:32:59.999   43.790680406  125.444221734   271.6644   6   7   0.4090   0.3334   0.6882   0.1544   0.1832   0.2416   0.00    0.0
2020/11/05 00:33:29.999   43.790680513  125.444221650   271.6651   6   7   0.4052   0.3308   0.6819   0.1529   0.1836   0.2383   0.00    0.0
2020/11/05 00:33:59.999   43.790680571  125.444221638   271.6656   6   7   0.4015   0.3282   0.6759   0.1515   0.1839   0.2352   0.00    0.0
2020/11/05 00:34:29.999   43.790680584  125.444221820   271.6530   6   7   0.3979   0.3258   0.6700   0.1501   0.1841   0.2321   0.00    0.0
2020/11/05 00:34:59.999   43.790680485  125.444221827   271.6406   6   7   0.3944   0.3234   0.6643   0.1488   0.1843   0.2292   0.00    0.0
2020/11/05 00:35:29.999   43.790680558  125.444221887   271.6313   6   7   0.3909   0.3210   0.6588   0.1475   0.1845   0.2264   0.00    0.0
2020/11/05 00:35:59.999   43.790680651  125.444222002   271.6241   6   7   0.3876   0.3188   0.6534   0.1463   0.1847   0.2237   0.00    0.0
2020/11/05 00:36:29.999   43.790680741  125.444222034   271.6068   6   7   0.3843   0.3166   0.6481   0.1451   0.1848   0.2211   0.00    0.0
2020/11/05 00:36:59.999   43.790680723  125.444222032   271.6063   6   7   0.3812   0.3144   0.6430   0.1439   0.1849   0.2186   0.00    0.0
2020/11/05 00:37:29.999   43.790680752  125.444222121   271.5780   6   7   0.3781   0.3123   0.6381   0.1427   0.1849   0.2162   0.00    0.0
2020/11/05 00:37:59.999   43.790680811  125.444222315   271.5564   6   7   0.3751   0.3102   0.6332   0.1416   0.1850   0.2139   0.00    0.0
2020/11/05 00:38:29.999   43.790680860  125.444222348   271.5456   6   7   0.3721   0.3082   0.6285   0.1405   0.1850   0.2117   0.00    0.0
2020/11/05 00:38:59.999   43.790680900  125.444222357   271.5338   6   7   0.3693   0.3063   0.6239   0.1395   0.1850   0.2096   0.00    0.0
2020/11/05 00:39:29.999   43.790680964  125.444222423   271.5156   6   7   0.3665   0.3044   0.6194   0.1385   0.1850   0.2075   0.00    0.0
2020/11/05 00:39:59.999   43.790681111  125.444222481   271.5131   6   7   0.3637   0.3025   0.6151   0.1375   0.1850   0.2055   0.00    0.0
2020/11/05 00:40:29.999   43.790681118  125.444222433   271.4991   6   7   0.3610   0.3007   0.6108   0.1365   0.1849   0.2035   0.00    0.0
2020/11/05 00:40:59.999   43.790681146  125.444222435   271.5003   6   7   0.3584   0.2989   0.6066   0.1355   0.1849   0.2017   0.00    0.0
2020/11/05 00:41:29.999   43.790681145  125.444222562   271.4968   6   7   0.3559   0.2972   0.6025   0.1346   0.1848   0.1999   0.00    0.0
2020/11/05 00:41:59.999   43.790681267  125.444222635   271.5014   6   7   0.3533   0.2954   0.5985   0.1337   0.1847   0.1981   0.00    0.0
2020/11/05 00:42:29.999   43.790681286  125.444222580   271.4813   6   7   0.3509   0.2938   0.5946   0.1328   0.1846   0.1964   0.00    0.0
2020/11/05 00:42:59.999   43.790681314  125.444222519   271.4637   6   7   0.3485   0.2921   0.5908   0.1319   0.1845   0.1948   0.00    0.0
2020/11/05 00:43:29.999   43.790681358  125.444222544   271.4484   6   7   0.3461   0.2905   0.5871   0.1311   0.1844   0.1932   0.00    0.0
2020/11/05 00:43:59.999   43.790681438  125.444222419   271.4387   6   7   0.3438   0.2890   0.5834   0.1302   0.1843   0.1917   0.00    0.0
2020/11/05 00:44:29.999   43.790681442  125.444222423   271.4315   6   7   0.3416   0.2874   0.5798   0.1294   0.1841   0.1902   0.00    0.0
2020/11/05 00:44:59.999   43.790681424  125.444222350   271.4403   6   7   0.3394   0.2859   0.5763   0.1286   0.1840   0.1887   0.00    0.0
2020/11/05 00:45:29.999   43.790681483  125.444222317   271.4441   6   8   0.3371   0.2843   0.5724   0.1282   0.1844   0.1868   0.00    0.0
2020/11/05 00:45:59.999   43.790681599  125.444222337   271.4485   6   8   0.3349   0.2827   0.5685   0.1277   0.1848   0.1850   0.00    0.0
2020/11/05 00:46:29.999   43.790681587  125.444222380   271.4388   6   8   0.3327   0.2812   0.5648   0.1272   0.1851   0.1832   0.00    0.0
2020/11/05 00:46:59.999   43.790681661  125.444222431   271.4328   6   8   0.3305   0.2797   0.5612   0.1267   0.1854   0.1815   0.00    0.0
2020/11/05 00:47:29.999   43.790681775  125.444222438   271.4428   6   8   0.3284   0.2782   0.5576   0.1262   0.1856   0.1798   0.00    0.0
2020/11/05 00:47:59.999   43.790681832  125.444222526   271.4358   6   8   0.3264   0.2767   0.5541   0.1257   0.1858   0.1782   0.00    0.0
2020/11/05 00:48:29.999   43.790681881  125.444222657   271.4133   6   8   0.3244   0.2753   0.5508   0.1253   0.1860   0.1767   0.00    0.0
2020/11/05 00:48:59.999   43.790682012  125.444222728   271.4144   6   8   0.3224   0.2739   0.5474   0.1248   0.1862   0.1752   0.00    0.0
2020/11/05 00:49:29.999   43.790682086  125.444222734   271.4018   6   8   0.3205   0.2725   0.5442   0.1243   0.1863   0.1738   0.00    0.0
2020/11/05 00:49:59.999   43.790682058  125.444222776   271.3974   6   8   0.3186   0.2712   0.5410   0.1238   0.1865   0.1724   0.00    0.0
2020/11/05 00:50:29.999   43.790682057  125.444222783   271.3924   6   8   0.3167   0.2698   0.5379   0.1234   0.1865   0.1710   0.00    0.0
2020/11/05 00:50:59.999   43.790682101  125.444222760   271.3846   6   8   0.3149   0.2685   0.5348   0.1229   0.1866   0.1697   0.00    0.0
2020/11/05 00:51:29.999   43.790682145  125.444222705   271.3890   6   8   0.3131   0.2672   0.5318   0.1224   0.1867   0.1685   0.00    0.0
2020/11/05 00:51:59.999   43.790682254  125.444222647   271.3865   6   8   0.3114   0.2660   0.5289   0.1219   0.1867   0.1673   0.00    0.0
2020/11/05 00:52:29.999   43.790682341  125.444222652   271.3783   6   8   0.3096   0.2648   0.5260   0.1215   0.1867   0.1661   0.00    0.0
2020/11/05 00:52:59.999   43.790682446  125.444222722   271.3745   6   8   0.3079   0.2635   0.5232   0.1210   0.1867   0.1650   0.00    0.0
2020/11/05 00:53:29.999   43.790682481  125.444222755   271.3694   6   8   0.3063   0.2623   0.5204   0.1206   0.1867   0.1639   0.00    0.0
2020/11/05 00:53:59.999   43.790682589  125.444222958   271.3612   6   8   0.3046   0.2612   0.5177   0.1201   0.1866   0.1628   0.00    0.0
2020/11/05 00:54:29.999   43.790682676  125.444223037   271.3533   6   8   0.3030   0.2600   0.5150   0.1196   0.1866   0.1618   0.00    0.0
2020/11/05 00:54:59.999   43.790682758  125.444223049   271.3570   6   8   0.3015   0.2589   0.5124   0.1192   0.1865   0.1608   0.00    0.0
2020/11/05 00:55:29.999   43.790682810  125.444223109   271.3558   6   8   0.2999   0.2578   0.5098   0.1187   0.1864   0.1598   0.00    0.0
2020/11/05 00:55:59.999   43.790682837  125.444223129   271.3716   6   8   0.2984   0.2567   0.5073   0.1183   0.1864   0.1589   0.00    0.0
2020/11/05 00:56:29.999   43.790682850  125.444223137   271.3776   6   8   0.2969   0.2556   0.5048   0.1178   0.1863   0.1580   0.00    0.0
2020/11/05 00:56:59.999   43.790682915  125.444223152   271.3729   6   7   0.2956   0.2546   0.5027   0.1177   0.1859   0.1564   0.00    0.0
2020/11/05 00:57:29.999   43.790682951  125.444223171   271.3706   6   7   0.2944   0.2536   0.5007   0.1175   0.1856   0.1549   0.00    0.0
2020/11/05 00:57:59.999   43.790682962  125.444223176   271.3693   6   7   0.2932   0.2527   0.4986   0.1174   0.1853   0.1534   0.00    0.0
2020/11/05 00:58:29.999   43.790683005  125.444223252   271.3588   6   7   0.2921   0.2518   0.4966   0.1172   0.1850   0.1519   0.00    0.0
2020/11/05 00:58:59.999   43.790683034  125.444223268   271.3535   6   7   0.2909   0.2508   0.4947   0.1170   0.1846   0.1505   0.00    0.0
2020/11/05 00:59:29.999   43.790683038  125.444223230   271.3543   6   7   0.2898   0.2499   0.4927   0.1169   0.1843   0.1491   0.00    0.0
2020/11/05 00:59:59.999   43.790683057  125.444223232   271.3503   6   7   0.2886   0.2490   0.4908   0.1167   0.1840   0.1476   0.00    0.0
2020/11/05 01:00:29.999   43.790683090  125.444223150   271.3404   6   7   0.2875   0.2481   0.4888   0.1165   0.1837   0.1461   0.00    0.0
2020/11/05 01:00:59.999   43.790683113  125.444223125   271.3372   6   7   0.2863   0.2472   0.4869   0.1164   0.1834   0.1447   0.00    0.0
2020/11/05 01:01:29.999   43.790683156  125.444223110   271.3353   6   7   0.2852   0.2463   0.4850   0.1162   0.1831   0.1433   0.00    0.0
2020/11/05 01:01:59.999   43.790683173  125.444223069   271.3326   6   7   0.2841   0.2454   0.4832   0.1160   0.1828   0.1420   0.00    0.0
2020/11/05 01:02:29.999   43.790683268  125.444223079   271.3345   6   7   0.2830   0.2445   0.4814   0.1158   0.1825   0.1406   0.00    0.0
2020/11/05 01:02:59.999   43.790683307  125.444223019   271.3381   6   7   0.2820   0.2437   0.4796   0.1155   0.1822   0.1393   0.00    0.0
2020/11/05 01:03:29.999   43.790683328  125.444222977   271.3393   6   7   0.2809   0.2428   0.4778   0.1153   0.1819   0.1380   0.00    0.0
2020/11/05 01:03:59.999   43.790683382  125.444222893   271.3377   6   7   0.2799   0.2420   0.4761   0.1151   0.1816   0.1368   0.00    0.0
2020/11/05 01:04:29.999   43.790683408  125.444222819   271.3396   6   7   0.2788   0.2412   0.4744   0.1148   0.1813   0.1355   0.00    0.0
2020/11/05 01:04:59.999   43.790683421  125.444222802   271.3326   6   7   0.2778   0.2403   0.4727   0.1146   0.1810   0.1343   0.00    0.0
2020/11/05 01:05:29.999   43.790683492  125.444222734   271.3273   6   7   0.2768   0.2395   0.4710   0.1143   0.1806   0.1331   0.00    0.0
2020/11/05 01:05:59.999   43.790683549  125.444222637   271.3251   6   7   0.2758   0.2387   0.4694   0.1140   0.1803   0.1319   0.00    0.0
2020/11/05 01:06:29.999   43.790683625  125.444222557   271.3310   6   7   0.2748   0.2379   0.4678   0.1138   0.1800   0.1308   0.00    0.0
2020/11/05 01:06:59.999   43.790683679  125.444222518   271.3313   6   7   0.2738   0.2371   0.4662   0.1135   0.1797   0.1296   0.00    0.0
2020/11/05 01:07:29.999   43.790683726  125.444222415   271.3262   6   7   0.2728   0.2363   0.4646   0.1132   0.1794   0.1285   0.00    0.0
2020/11/05 01:07:59.999   43.790683764  125.444222358   271.3260   6   7   0.2719   0.2356   0.4630   0.1129   0.1791   0.1274   0.00    0.0
2020/11/05 01:08:29.999   43.790683846  125.444222309   271.3317   6   7   0.2709   0.2348   0.4615   0.1126   0.1787   0.1263   0.00    0.0
2020/11/05 01:08:59.999   43.790683857  125.444222254   271.3381   6   7   0.2700   0.2341   0.4600   0.1123   0.1784   0.1253   0.00    0.0
2020/11/05 01:09:29.999   43.790683881  125.444222225   271.3451   6   7   0.2691   0.2333   0.4585   0.1120   0.1781   0.1242   0.00    0.0
2020/11/05 01:09:59.999   43.790683965  125.444222210   271.3430   6   7   0.2681   0.2326   0.4570   0.1117   0.1778   0.1232   0.00    0.0
2020/11/05 01:10:29.999   43.790683996  125.444222168   271.3362   6   7   0.2672   0.2318   0.4555   0.1113   0.1775   0.1222   0.00    0.0
2020/11/05 01:10:59.999   43.790684079  125.444222130   271.3310   6   7   0.2663   0.2311   0.4541   0.1110   0.1772   0.1212   0.00    0.0
2020/11/05 01:11:29.999   43.790684104  125.444222089   271.3292   6   7   0.2654   0.2304   0.4527   0.1107   0.1768   0.1203   0.00    0.0
2020/11/05 01:11:59.999   43.790684134  125.444222031   271.3343   6   7   0.2645   0.2297   0.4513   0.1103   0.1765   0.1193   0.00    0.0
2020/11/05 01:12:29.999   43.790684162  125.444221988   271.3380   6   7   0.2637   0.2289   0.4499   0.1100   0.1762   0.1183   0.00    0.0
2020/11/05 01:12:59.999   43.790684216  125.444221945   271.3389   6   7   0.2628   0.2282   0.4485   0.1096   0.1759   0.1174   0.00    0.0
2020/11/05 01:13:29.999   43.790684264  125.444221903   271.3415   6   7   0.2619   0.2275   0.4471   0.1093   0.1756   0.1165   0.00    0.0
2020/11/05 01:13:59.999   43.790684308  125.444221886   271.3445   6   7   0.2611   0.2269   0.4458   0.1089   0.1752   0.1156   0.00    0.0
2020/11/05 01:14:29.999   43.790684281  125.444221777   271.3282   6   8   0.2599   0.2259   0.4438   0.1079   0.1742   0.1135   0.00    0.0
2020/11/05 01:14:59.999   43.790684254  125.444221588   271.3086   6   8   0.2588   0.2250   0.4419   0.1069   0.1731   0.1113   0.00    0.0
2020/11/05 01:15:29.999   43.790684245  125.444221439   271.2925   6   8   0.2577   0.2240   0.4401   0.1060   0.1721   0.1093   0.00    0.0
2020/11/05 01:15:59.999   43.790684243  125.444221277   271.2871   6   8   0.2566   0.2231   0.4382   0.1050   0.1711   0.1072   0.00    0.0
2020/11/05 01:16:29.999   43.790684183  125.444221117   271.2698   6   8   0.2555   0.2222   0.4364   0.1040   0.1701   0.1052   0.00    0.0
2020/11/05 01:16:59.999   43.790684157  125.444221028   271.2597   6   8   0.2545   0.2213   0.4347   0.1031   0.1692   0.1032   0.00    0.0
2020/11/05 01:17:29.999   43.790684118  125.444220895   271.2456   6   8   0.2534   0.2204   0.4329   0.1022   0.1682   0.1012   0.00    0.0
2020/11/05 01:17:59.999   43.790684072  125.444220828   271.2339   6   8   0.2524   0.2195   0.4312   0.1012   0.1673   0.0993   0.00    0.0
2020/11/05 01:18:29.999   43.790684088  125.444220775   271.2261   6   8   0.2514   0.2187   0.4295   0.1003   0.1664   0.0974   0.00    0.0
2020/11/05 01:18:59.999   43.790684179  125.444220830   271.2242   6   8   0.2504   0.2178   0.4279   0.0994   0.1655   0.0955   0.00    0.0
2020/11/05 01:19:29.999   43.790684228  125.444220790   271.2201   6   8   0.2494   0.2169   0.4262   0.0985   0.1646   0.0936   0.00    0.0
2020/11/05 01:19:59.999   43.790684250  125.444220681   271.2158   6   8   0.2484   0.2161   0.4246   0.0976   0.1637   0.0917   0.00    0.0
2020/11/05 01:20:29.999   43.790684244  125.444220602   271.2113   6   8   0.2475   0.2153   0.4230   0.0967   0.1629   0.0899   0.00    0.0
2020/11/05 01:20:59.999   43.790684222  125.444220471   271.1963   6   8   0.2465   0.2145   0.4215   0.0958   0.1620   0.0881   0.00    0.0
2020/11/05 01:21:29.999   43.790684233  125.444220401   271.1868   6   8   0.2456   0.2136   0.4199   0.0949   0.1612   0.0862   0.00    0.0
2020/11/05 01:21:59.999   43.790684272  125.444220357   271.1812   6   8   0.2446   0.2128   0.4184   0.0940   0.1604   0.0845   0.00    0.0
2020/11/05 01:22:29.999   43.790684309  125.444220276   271.1772   6   8   0.2437   0.2121   0.4169   0.0932   0.1596   0.0827   0.00    0.0
2020/11/05 01:22:59.999   43.790684293  125.444220210   271.1658   6   8   0.2428   0.2113   0.4155   0.0923   0.1588   0.0809   0.00    0.0
2020/11/05 01:23:29.999   43.790684318  125.444220188   271.1581   6   8   0.2419   0.2105   0.4140   0.0914   0.1580   0.0792   0.00    0.0
2020/11/05 01:23:59.999   43.790684318  125.444220136   271.1479   6   8   0.2410   0.2097   0.4126   0.0906   0.1572   0.0775   0.00    0.0
2020/11/05 01:24:29.999   43.790684305  125.444220065   271.1405   6   8   0.2401   0.2090   0.4112   0.0897   0.1565   0.0758   0.00    0.0
2020/11/05 01:24:59.999   43.790684288  125.444220010   271.1340   6   8   0.2393   0.2082   0.4098   0.0889   0.1557   0.0741   0.00    0.0
2020/11/05 01:25:29.999   43.790684285  125.444219965   271.1276   6   8   0.2384   0.2075   0.4084   0.0880   0.1550   0.0724   0.00    0.0
2020/11/05 01:25:59.999   43.790684308  125.444219880   271.1160   6   7   0.2376   0.2068   0.4073   0.0871   0.1543   0.0712   0.00    0.0
2020/11/05 01:26:29.999   43.790684343  125.444219787   271.1076   6   7   0.2368   0.2061   0.4062   0.0863   0.1536   0.0700   0.00    0.0
2020/11/05 01:26:59.999   43.790684330  125.444219671   271.0973   6   7   0.2361   0.2054   0.4052   0.0854   0.1528   0.0688   0.00    0.0
2020/11/05 01:27:29.999   43.790684301  125.444219550   271.0788   6   7   0.2353   0.2047   0.4041   0.0845   0.1521   0.0677   0.00    0.0
2020/11/05 01:27:59.999   43.790684277  125.444219405   271.0657   6   7   0.2345   0.2040   0.4031   0.0837   0.1515   0.0665   0.00    0.0
2020/11/05 01:28:29.999   43.790684245  125.444219326   271.0538   6   7   0.2338   0.2033   0.4021   0.0828   0.1508   0.0654   0.00    0.0
2020/11/05 01:28:59.999   43.790684257  125.444219287   271.0462   6   7   0.2330   0.2026   0.4010   0.0820   0.1501   0.0643   0.00    0.0
2020/11/05 01:29:29.999   43.790684251  125.444219199   271.0397   6   7   0.2323   0.2020   0.4000   0.0811   0.1494   0.0632   0.00    0.0
2020/11/05 01:29:59.999   43.790684259  125.444219081   271.0296   6   7   0.2316   0.2013   0.3991   0.0803   0.1488   0.0621   0.00    0.0
2020/11/05 01:30:29.999   43.790684293  125.444219017   271.0209   6   7   0.2308   0.2007   0.3981   0.0794   0.1481   0.0610   0.00    0.0
2020/11/05 01:30:59.999   43.790684271  125.444218910   271.0069   6   7   0.2301   0.2000   0.3971   0.0786   0.1475   0.0600   0.00    0.0
2020/11/05 01:31:29.999   43.790684265  125.444218813   270.9977   6   7   0.2294   0.1994   0.3962   0.0778   0.1469   0.0589   0.00    0.0
2020/11/05 01:31:59.999   43.790684241  125.444218706   270.9848   6   7   0.2287   0.1987   0.3952   0.0769   0.1463   0.0578   0.00    0.0
2020/11/05 01:32:29.999   43.790684253  125.444218634   270.9793   6   7   0.2280   0.1981   0.3943   0.0761   0.1456   0.0568   0.00    0.0
2020/11/05 01:32:59.999   43.790684281  125.444218564   270.9696   6   7   0.2273   0.1975   0.3934   0.0753   0.1450   0.0558   0.00    0.0
2020/11/05 01:33:29.999   43.790684292  125.444218478   270.9609   6   7   0.2266   0.1969   0.3924   0.0744   0.1444   0.0547   0.00    0.0
2020/11/05 01:33:59.999   43.790684315  125.444218410   270.9551   6   7   0.2259   0.1963   0.3915   0.0736   0.1439   0.0537   0.00    0.0
2020/11/05 01:34:29.999   43.790684334  125.444218336   270.9452   6   7   0.2252   0.1956   0.3906   0.0728   0.1433   0.0527   0.00    0.0
2020/11/05 01:34:59.999   43.790684371  125.444218281   270.9353   6   7   0.2246   0.1950   0.3897   0.0720   0.1427   0.0517   0.00    0.0
2020/11/05 01:35:29.999   43.790684403  125.444218199   270.9266   6   7   0.2239   0.1945   0.3889   0.0711   0.1421   0.0507   0.00    0.0
2020/11/05 01:35:59.999   43.790684435  125.444218104   270.9152   6   7   0.2233   0.1939   0.3880   0.0703   0.1416   0.0497   0.00    0.0
2020/11/05 01:36:29.999   43.790684487  125.444218030   270.9070   6   7   0.2226   0.1933   0.3871   0.0695   0.1410   0.0487   0.00    0.0
2020/11/05 01:36:59.999   43.790684483  125.444217934   270.9041   6   6   0.2221   0.1928   0.3864   0.0689   0.1403   0.0471   0.00    0.0
2020/11/05 01:37:29.999   43.790684483  125.444217851   270.8990   6   7   0.2214   0.1922   0.3855   0.0681   0.1398   0.0461   0.00    0.0
2020/11/05 01:37:59.999   43.790684525  125.444217831   270.8981   6   7   0.2208   0.1916   0.3847   0.0673   0.1393   0.0452   0.00    0.0
2020/11/05 01:38:29.999   43.790684528  125.444217761   270.8945   6   7   0.2201   0.1911   0.3839   0.0665   0.1387   0.0442   0.00    0.0
2020/11/05 01:38:59.999   43.790684542  125.444217688   270.8892   6   7   0.2195   0.1905   0.3830   0.0657   0.1382   0.0432   0.00    0.0
2020/11/05 01:39:29.999   43.790684573  125.444217657   270.8853   6   7   0.2189   0.1899   0.3822   0.0648   0.1377   0.0422   0.00    0.0
2020/11/05 01:39:59.999   43.790684587  125.444217609   270.8795   6   7   0.2183   0.1894   0.3814   0.0640   0.1372   0.0412   0.00    0.0
2020/11/05 01:40:29.999   43.790684614  125.444217544   270.8708   6   7   0.2177   0.1889   0.3806   0.0632   0.1367   0.0403   0.00    0.0
2020/11/05 01:40:59.999   43.790684631  125.444217493   270.8657   6   7   0.2171   0.1883   0.3798   0.0624   0.1362   0.0393   0.00    0.0
2020/11/05 01:41:29.999   43.790684652  125.444217407   270.8555   6   7   0.2165   0.1878   0.3790   0.0616   0.1357   0.0383   0.00    0.0
2020/11/05 01:41:59.999   43.790684675  125.444217345   270.8488   6   7   0.2159   0.1873   0.3782   0.0608   0.1352   0.0373   0.00    0.0
2020/11/05 01:42:29.999   43.790684706  125.444217288   270.8398   6   7   0.2153   0.1867   0.3774   0.0600   0.1347   0.0363   0.00    0.0
2020/11/05 01:42:59.999   43.790684722  125.444217232   270.8325   6   7   0.2147   0.1862   0.3767   0.0592   0.1343   0.0353   0.00    0.0
2020/11/05 01:43:29.999   43.790684732  125.444217170   270.8311   6   7   0.2141   0.1857   0.3759   0.0583   0.1338   0.0343   0.00    0.0
2020/11/05 01:43:59.999   43.790684742  125.444217076   270.8249   6   7   0.2135   0.1852   0.3751   0.0575   0.1333   0.0333   0.00    0.0
2020/11/05 01:44:29.999   43.790684781  125.444217037   270.8204   6   7   0.2129   0.1847   0.3744   0.0567   0.1329   0.0323   0.00    0.0
2020/11/05 01:44:59.999   43.790684798  125.444216974   270.8155   6   7   0.2124   0.1842   0.3736   0.0559   0.1324   0.0313   0.00    0.0
2020/11/05 01:45:29.999   43.790684818  125.444216932   270.8103   6   7   0.2118   0.1837   0.3729   0.0551   0.1320   0.0302   0.00    0.0
2020/11/05 01:45:59.999   43.790684844  125.444216921   270.8063   6   7   0.2112   0.1832   0.3721   0.0542   0.1315   0.0292   0.00    0.0
2020/11/05 01:46:29.999   43.790684864  125.444216842   270.8012   6   7   0.2107   0.1827   0.3714   0.0534   0.1311   0.0281   0.00    0.0
2020/11/05 01:46:59.999   43.790684879  125.444216799   270.7992   6   7   0.2101   0.1822   0.3707   0.0526   0.1306   0.0270   0.00    0.0
2020/11/05 01:47:29.999   43.790684901  125.444216769   270.7959   6   7   0.2096   0.1817   0.3699   0.0518   0.1302   0.0259   0.00    0.0
2020/11/05 01:47:59.999   43.790684919  125.444216701   270.7919   6   7   0.2090   0.1812   0.3692   0.0509   0.1298   0.0247   0.00    0.0
2020/11/05 01:48:29.999   43.790684947  125.444216651   270.7907   6   7   0.2085   0.1808   0.3685   0.0501   0.1293   0.0235   0.00    0.0
2020/11/05 01:48:59.999   43.790684971  125.444216574   270.7896   6   7   0.2079   0.1803   0.3678   0.0493   0.1289   0.0223   0.00    0.0
2020/11/05 01:49:29.999   43.790684980  125.444216482   270.7843   6   7   0.2074   0.1798   0.3671   0.0484   0.1285   0.0210   0.00    0.0
2020/11/05 01:49:59.999   43.790684995  125.444216430   270.7817   6   7   0.2069   0.1794   0.3664   0.0476   0.1281   0.0197   0.00    0.0
2020/11/05 01:50:29.999   43.790685017  125.444216385   270.7801   6   7   0.2063   0.1789   0.3657   0.0467   0.1277   0.0183   0.00    0.0
2020/11/05 01:50:59.999   43.790685056  125.444216368   270.7780   6   7   0.2058   0.1785   0.3650   0.0458   0.1273   0.0168   0.00    0.0
2020/11/05 01:51:29.999   43.790685099  125.444216319   270.7710   6   7   0.2053   0.1780   0.3643   0.0450   0.1269   0.0152   0.00    0.0
2020/11/05 01:51:59.999   43.790685122  125.444216266   270.7667   6   7   0.2048   0.1776   0.3636   0.0441   0.1265   0.0134   0.00    0.0
2020/11/05 01:52:29.999   43.790685153  125.444216238   270.7648   6   7   0.2043   0.1771   0.3629   0.0432   0.1261   0.0114   0.00    0.0
2020/11/05 01:52:59.999   43.790685189  125.444216191   270.7609   6   7   0.2038   0.1767   0.3622   0.0423   0.1257   0.0090   0.00    0.0
2020/11/05 01:53:29.999   43.790685185  125.444216136   270.7601   6   7   0.2033   0.1763   0.3615   0.0414   0.1253   0.0056   0.00    0.0
2020/11/05 01:53:59.999   43.790685197  125.444216066   270.7608   6   7   0.2028   0.1758   0.3608   0.0405   0.1249  -0.0040   0.00    0.0
2020/11/05 01:54:29.999   43.790685218  125.444215998   270.7603   6   7   0.2023   0.1754   0.3601   0.0396   0.1245  -0.0080   0.00    0.0
2020/11/05 01:54:59.999   43.790685243  125.444215951   270.7565   6   7   0.2018   0.1750   0.3595   0.0387   0.1242  -0.0105   0.00    0.0
2020/11/05 01:55:29.999   43.790685281  125.444215922   270.7526   6   7   0.2013   0.1746   0.3588   0.0378   0.1238  -0.0125   0.00    0.0
2020/11/05 01:55:59.999   43.790685332  125.444215864   270.7488   6   7   0.2008   0.1741   0.3581   0.0368   0.1234  -0.0142   0.00    0.0
2020/11/05 01:56:29.999   43.790685362  125.444215803   270.7420   6   7   0.2003   0.1737   0.3575   0.0359   0.1230  -0.0157   0.00    0.0
2020/11/05 01:56:59.999   43.790685409  125.444215748   270.7360   6   7   0.1998   0.1733   0.3568   0.0349   0.1227  -0.0170   0.00    0.0
2020/11/05 01:57:29.999   43.790685425  125.444215708   270.7400   6   7   0.1994   0.1729   0.3561   0.0339   0.1223  -0.0183   0.00    0.0
2020/11/05 01:57:59.999   43.790685437  125.444215659   270.7433   6   7   0.1989   0.1725   0.3555   0.0329   0.1219  -0.0194   0.00    0.0
2020/11/05 01:58:29.999   43.790685445  125.444215575   270.7439   6   8   0.1983   0.1720   0.3545   0.0324   0.1212  -0.0182   0.00    0.0
2020/11/05 01:58:59.999   43.790685473  125.444215510   270.7448   6   8   0.1978   0.1715   0.3535   0.0320   0.1204  -0.0170   0.00    0.0
2020/11/05 01:59:29.999   43.790685505  125.444215457   270.7439   6   8   0.1972   0.1709   0.3526   0.0315   0.1197  -0.0157   0.00    0.0
2020/11/05 01:59:59.999   43.790685544  125.444215399   270.7393   6   8   0.1967   0.1704   0.3516   0.0311   0.1190  -0.0144   0.00    0.0
2020/11/05 02:00:29.999   43.790685610  125.444215339   270.7361   6   8   0.1962   0.1699   0.3507   0.0306   0.1183  -0.0130   0.00    0.0
2020/11/05 02:00:59.999   43.790685676  125.444215254   270.7276   6   8   0.1956   0.1695   0.3498   0.0301   0.1176  -0.0115   0.00    0.0
2020/11/05 02:01:29.999   43.790685728  125.444215142   270.7180   6   8   0.1951   0.1690   0.3489   0.0297   0.1169  -0.0098   0.00    0.0
2020/11/05 02:01:59.999   43.790685774  125.444215029   270.7095   6   8   0.1946   0.1685   0.3480   0.0292   0.1162  -0.0079   0.00    0.0
2020/11/05 02:02:29.999   43.790685826  125.444214944   270.7041   6   8   0.1940   0.1680   0.3471   0.0287   0.1155  -0.0054   0.00    0.0
2020/11/05 02:02:59.999   43.790685864  125.444214872   270.7021   6   8   0.1935   0.1675   0.3462   0.0282   0.1148   0.0015   0.00    0.0
2020/11/05 02:03:29.999   43.790685911  125.444214781   270.6959   6   8   0.1930   0.1671   0.3453   0.0277   0.1142   0.0057   0.00    0.0
2020/11/05 02:03:59.999   43.790685967  125.444214689   270.6868   6   8   0.1925   0.1666   0.3445   0.0272   0.1135   0.0078   0.00    0.0
2020/11/05 02:04:29.999   43.790686040  125.444214605   270.6793   6   8   0.1920   0.1661   0.3436   0.0267   0.1129   0.0094   0.00    0.0
2020/11/05 02:04:59.999   43.790686081  125.444214517   270.6718   6   8   0.1915   0.1657   0.3427   0.0261   0.1122   0.0107   0.00    0.0
2020/11/05 02:05:29.999   43.790686110  125.444214439   270.6668   6   8   0.1910   0.1652   0.3419   0.0256   0.1116   0.0118   0.00    0.0
2020/11/05 02:05:59.999   43.790686160  125.444214360   270.6594   6   8   0.1905   0.1648   0.3411   0.0251   0.1110   0.0128   0.00    0.0
2020/11/05 02:06:29.999   43.790686189  125.444214300   270.6578   6   8   0.1900   0.1643   0.3402   0.0245   0.1104   0.0137   0.00    0.0
2020/11/05 02:06:59.999   43.790686218  125.444214223   270.6551   6   8   0.1895   0.1639   0.3394   0.0240   0.1098   0.0144   0.00    0.0
2020/11/05 02:07:29.999   43.790686248  125.444214163   270.6546   6   8   0.1890   0.1635   0.3386   0.0234   0.1092   0.0151   0.00    0.0
2020/11/05 02:07:59.999   43.790686296  125.444214082   270.6523   6   8   0.1885   0.1630   0.3378   0.0229   0.1086   0.0157   0.00    0.0
2020/11/05 02:08:29.999   43.790686331  125.444213995   270.6512   6   8   0.1880   0.1626   0.3370   0.0223   0.1080   0.0163   0.00    0.0
2020/11/05 02:08:59.999   43.790686350  125.444213939   270.6531   6   8   0.1875   0.1622   0.3362   0.0217   0.1074   0.0168   0.00    0.0
2020/11/05 02:09:29.999   43.790686404  125.444213889   270.6502   6   8   0.1871   0.1618   0.3354   0.0211   0.1069   0.0173   0.00    0.0
2020/11/05 02:09:59.999   43.790686470  125.444213817   270.6452   6   8   0.1866   0.1613   0.3346   0.0205   0.1063   0.0177   0.00    0.0
2020/11/05 02:10:29.999   43.790686526  125.444213742   270.6408   6   8   0.1861   0.1609   0.3339   0.0198   0.1058   0.0181   0.00    0.0
2020/11/05 02:10:59.999   43.790686590  125.444213670   270.6372   6   8   0.1857   0.1605   0.3331   0.0192   0.1052   0.0184   0.00    0.0
2020/11/05 02:11:29.999   43.790686656  125.444213600   270.6281   6   8   0.1852   0.1601   0.3323   0.0185   0.1047   0.0187   0.00    0.0
2020/11/05 02:11:59.999   43.790686702  125.444213533   270.6296   6   8   0.1847   0.1597   0.3316   0.0179   0.1042   0.0190   0.00    0.0
2020/11/05 02:12:29.999   43.790686754  125.444213479   270.6294   6   8   0.1843   0.1593   0.3308   0.0172   0.1036   0.0193   0.00    0.0
2020/11/05 02:12:59.999   43.790686804  125.444213419   270.6298   6   8   0.1838   0.1589   0.3301   0.0164   0.1031   0.0195   0.00    0.0
2020/11/05 02:13:29.999   43.790686847  125.444213377   270.6319   6   8   0.1834   0.1585   0.3293   0.0157   0.1026   0.0197   0.00    0.0
2020/11/05 02:13:59.999   43.790686896  125.444213329   270.6326   6   8   0.1829   0.1582   0.3286   0.0149   0.1021   0.0199   0.00    0.0
2020/11/05 02:14:29.999   43.790686957  125.444213290   270.6312   6   8   0.1825   0.1578   0.3279   0.0141   0.1016   0.0200   0.00    0.0
2020/11/05 02:14:59.999   43.790687004  125.444213224   270.6307   6   8   0.1821   0.1574   0.3272   0.0133   0.1011   0.0201   0.00    0.0
2020/11/05 02:15:29.999   43.790687048  125.444213187   270.6315   6   8   0.1816   0.1570   0.3264   0.0124   0.1006   0.0202   0.00    0.0
2020/11/05 02:15:59.999   43.790687097  125.444213153   270.6317   6   8   0.1812   0.1567   0.3257   0.0114   0.1001   0.0203   0.00    0.0
2020/11/05 02:16:29.999   43.790687137  125.444213131   270.6364   6   8   0.1807   0.1563   0.3250   0.0104   0.0996   0.0204   0.00    0.0
2020/11/05 02:16:59.999   43.790687169  125.444213108   270.6385   6   8   0.1803   0.1559   0.3243   0.0092   0.0992   0.0204   0.00    0.0
2020/11/05 02:17:29.999   43.790687194  125.444213069   270.6422   6   8   0.1799   0.1556   0.3236   0.0080   0.0987   0.0204   0.00    0.0
2020/11/05 02:17:59.999   43.790687243  125.444213021   270.6419   6   8   0.1795   0.1552   0.3229   0.0064   0.0983   0.0204   0.00    0.0
2020/11/05 02:18:29.999   43.790687288  125.444212966   270.6442   6   8   0.1790   0.1548   0.3222   0.0045   0.0978   0.0204   0.00    0.0
2020/11/05 02:18:59.999   43.790687320  125.444212896   270.6479   6   8   0.1786   0.1545   0.3215  -0.0012   0.0973   0.0204   0.00    0.0
2020/11/05 02:19:29.999   43.790687362  125.444212821   270.6486   6   8   0.1782   0.1541   0.3208  -0.0047   0.0969   0.0203   0.00    0.0
2020/11/05 02:19:59.999   43.790687419  125.444212763   270.6482   6   8   0.1778   0.1538   0.3201  -0.0066   0.0965   0.0203   0.00    0.0
2020/11/05 02:20:29.999   43.790687467  125.444212718   270.6482   6   8   0.1774   0.1534   0.3195  -0.0080   0.0960   0.0202   0.00    0.0
2020/11/05 02:20:59.999   43.790687518  125.444212673   270.6491   6   8   0.1770   0.1531   0.3188  -0.0092   0.0956   0.0201   0.00    0.0
2020/11/05 02:21:29.999   43.790687578  125.444212618   270.6489   6   8   0.1766   0.1528   0.3181  -0.0102   0.0952   0.0199   0.00    0.0
2020/11/05 02:21:59.999   43.790687607  125.444212552   270.6532   6   7   0.1762   0.1524   0.3176  -0.0109   0.0947   0.0189   0.00    0.0
2020/11/05 02:22:29.999   43.790687642  125.444212490   270.6571   6   7   0.1759   0.1521   0.3170  -0.0116   0.0942   0.0178   0.00    0.0
2020/11/05 02:22:59.999   43.790687668  125.444212415   270.6614   6   7   0.1755   0.1518   0.3164  -0.0122   0.0938   0.0166   0.00    0.0
2020/11/05 02:23:29.999   43.790687697  125.444212331   270.6650   6   7   0.1752   0.1515   0.3158  -0.0128   0.0933   0.0152   0.00    0.0
2020/11/05 02:23:59.999   43.790687732  125.444212255   270.6686   6   7   0.1749   0.1512   0.3153  -0.0134   0.0929   0.0138   0.00    0.0
2020/11/05 02:24:29.999   43.790687767  125.444212213   270.6744   6   7   0.1745   0.1509   0.3147  -0.0139   0.0924   0.0122   0.00    0.0
2020/11/05 02:24:59.999   43.790687795  125.444212136   270.6791   6   7   0.1742   0.1506   0.3142  -0.0144   0.0920   0.0103   0.00    0.0
2020/11/05 02:25:29.999   43.790687830  125.444212079   270.6846   6   7   0.1739   0.1503   0.3136  -0.0149   0.0916   0.0080   0.00    0.0
2020/11/05 02:25:59.999   43.790687862  125.444212017   270.6897   6   7   0.1736   0.1500   0.3131  -0.0154   0.0912   0.0047   0.00    0.0
2020/11/05 02:26:29.999   43.790687907  125.444211947   270.6915   6   7   0.1732   0.1497   0.3125  -0.0158   0.0907  -0.0046   0.00    0.0
2020/11/05 02:26:59.999   43.790687953  125.444211879   270.6927   6   7   0.1729   0.1494   0.3120  -0.0162   0.0903  -0.0080   0.00    0.0
2020/11/05 02:27:29.999   43.790687992  125.444211804   270.6953   6   7   0.1726   0.1491   0.3114  -0.0167   0.0899  -0.0103   0.00    0.0
2020/11/05 02:27:59.999   43.790688034  125.444211738   270.6981   6   7   0.1723   0.1488   0.3109  -0.0171   0.0895  -0.0122   0.00    0.0
2020/11/05 02:28:29.999   43.790688073  125.444211688   270.6998   6   7   0.1719   0.1485   0.3104  -0.0175   0.0891  -0.0139   0.00    0.0
2020/11/05 02:28:59.999   43.790688126  125.444211631   270.7027   6   7   0.1716   0.1482   0.3098  -0.0178   0.0887  -0.0154   0.00    0.0
2020/11/05 02:29:29.999   43.790688155  125.444211565   270.7063   6   7   0.1713   0.1479   0.3093  -0.0182   0.0883  -0.0167   0.00    0.0
2020/11/05 02:29:59.999   43.790688184  125.444211509   270.7109   6   7   0.1710   0.1476   0.3088  -0.0186   0.0879  -0.0180   0.00    0.0
2020/11/05 02:30:29.999   43.790688213  125.444211424   270.7164   6   7   0.1707   0.1473   0.3082  -0.0189   0.0876  -0.0192   0.00    0.0
2020/11/05 02:30:59.999   43.790688253  125.444211367   270.7220   6   7   0.1704   0.1470   0.3077  -0.0192   0.0872  -0.0203   0.00    0.0
2020/11/05 02:31:29.999   43.790688294  125.444211308   270.7252   6   7   0.1701   0.1468   0.3072  -0.0196   0.0868  -0.0214   0.00    0.0
2020/11/05 02:31:59.999   43.790688327  125.444211270   270.7309   6   7   0.1698   0.1465   0.3067  -0.0199   0.0864  -0.0224   0.00    0.0
2020/11/05 02:32:29.999   43.790688358  125.444211213   270.7371   6   7   0.1694   0.1462   0.3061  -0.0202   0.0861  -0.0233   0.00    0.0
2020/11/05 02:32:59.999   43.790688390  125.444211151   270.7408   6   7   0.1691   0.1459   0.3056  -0.0205   0.0857  -0.0243   0.00    0.0
2020/11/05 02:33:29.999   43.790688404  125.444211090   270.7452   6   7   0.1688   0.1457   0.3051  -0.0208   0.0854  -0.0252   0.00    0.0
2020/11/05 02:33:59.999   43.790688433  125.444211030   270.7493   6   7   0.1685   0.1454   0.3046  -0.0211   0.0850  -0.0260   0.00    0.0
2020/11/05 02:34:29.999   43.790688461  125.444210987   270.7554   6   7   0.1682   0.1451   0.3041  -0.0213   0.0847  -0.0269   0.00    0.0
2020/11/05 02:34:59.999   43.790688483  125.444210952   270.7615   6   7   0.1679   0.1449   0.3036  -0.0216   0.0843  -0.0277   0.00    0.0
2020/11/05 02:35:29.999   43.790688503  125.444210883   270.7654   6   7   0.1677   0.1446   0.3031  -0.0219   0.0840  -0.0285   0.00    0.0
2020/11/05 02:35:59.999   43.790688534  125.444210825   270.7705   6   7   0.1674   0.1444   0.3026  -0.0221   0.0837  -0.0293   0.00    0.0
2020/11/05 02:36:29.999   43.790688577  125.444210749   270.7769   6   7   0.1671   0.1441   0.3021  -0.0224   0.0834  -0.0300   0.00    0.0
2020/11/05 02:36:59.999   43.790688614  125.444210693   270.7822   6   7   0.1668   0.1438   0.3016  -0.0226   0.0830  -0.0307   0.00    0.0
2020/11/05 02:37:29.999   43.790688633  125.444210628   270.7878   6   7   0.1665   0.1436   0.3011  -0.0229   0.0827  -0.0315   0.00    0.0
2020/11/05 02:37:59.999   43.790688660  125.444210571   270.7936   6   7   0.1662   0.1433   0.3006  -0.0231   0.0824  -0.0322   0.00    0.0
2020/11/05 02:38:29.999   43.790688687  125.444210533   270.7999   6   7   0.1659   0.1431   0.3001  -0.0233   0.0821  -0.0328   0.00    0.0
2020/11/05 02:38:59.999   43.790688709  125.444210489   270.8066   6   7   0.1656   0.1428   0.2996  -0.0236   0.0818  -0.0335   0.00    0.0
2020/11/05 02:39:29.999   43.790688735  125.444210444   270.8141   6   7   0.1654   0.1426   0.2991  -0.0238   0.0815  -0.0342   0.00    0.0
2020/11/05 02:39:59.999   43.790688762  125.444210382   270.8190   6   7   0.1651   0.1423   0.2986  -0.0240   0.0812  -0.0348   0.00    0.0
2020/11/05 02:40:29.999   43.790688805  125.444210329   270.8245   6   7   0.1648   0.1421   0.2981  -0.0242   0.0809  -0.0355   0.00    0.0
2020/11/05 02:40:59.999   43.790688828  125.444210273   270.8305   6   7   0.1645   0.1419   0.2976  -0.0244   0.0806  -0.0361   0.00    0.0
2020/11/05 02:41:29.999   43.790688848  125.444210230   270.8356   6   7   0.1642   0.1416   0.2971  -0.0246   0.0803  -0.0367   0.00    0.0
2020/11/05 02:41:59.999   43.790688883  125.444210188   270.8406   6   7   0.1640   0.1414   0.2967  -0.0248   0.0800  -0.0373   0.00    0.0
2020/11/05 02:42:29.999   43.790688918  125.444210137   270.8447   6   7   0.1637   0.1411   0.2962  -0.0250   0.0798  -0.0379   0.00    0.0
2020/11/05 02:42:59.999   43.790688955  125.444210105   270.8519   6   7   0.1634   0.1409   0.2957  -0.0252   0.0795  -0.0385   0.00    0.0
2020/11/05 02:43:29.999   43.790688991  125.444210064   270.8575   6   7   0.1632   0.1407   0.2952  -0.0254   0.0792  -0.0390   0.00    0.0
2020/11/05 02:43:59.999   43.790689014  125.444210024   270.8650   6   7   0.1629   0.1405   0.2947  -0.0255   0.0790  -0.0396   0.00    0.0
2020/11/05 02:44:29.999   43.790689034  125.444209975   270.8727   6   7   0.1626   0.1402   0.2943  -0.0257   0.0787  -0.0401   0.00    0.0
2020/11/05 02:44:59.999   43.790689045  125.444209933   270.8799   6   7   0.1624   0.1400   0.2938  -0.0259   0.0784  -0.0407   0.00    0.0
2020/11/05 02:45:29.999   43.790689073  125.444209881   270.8878   6   7   0.1621   0.1398   0.2933  -0.0260   0.0782  -0.0412   0.00    0.0
2020/11/05 02:45:59.999   43.790689111  125.444209844   270.8936   6   7   0.1618   0.1395   0.2929  -0.0262   0.0779  -0.0418   0.00    0.0
2020/11/05 02:46:29.999   43.790689156  125.444209809   270.8989   6   7   0.1616   0.1393   0.2924  -0.0264   0.0777  -0.0423   0.00    0.0
2020/11/05 02:46:59.999   43.790689198  125.444209774   270.9071   6   7   0.1613   0.1391   0.2919  -0.0265   0.0774  -0.0428   0.00    0.0
2020/11/05 02:47:29.999   43.790689240  125.444209736   270.9145   6   7   0.1611   0.1389   0.2915  -0.0267   0.0772  -0.0433   0.00    0.0
2020/11/05 02:47:59.999   43.790689286  125.444209699   270.9208   6   7   0.1608   0.1387   0.2910  -0.0268   0.0770  -0.0438   0.00    0.0
2020/11/05 02:48:29.999   43.790689317  125.444209647   270.9251   6   7   0.1606   0.1385   0.2905  -0.0270   0.0767  -0.0443   0.00    0.0
2020/11/05 02:48:59.999   43.790689347  125.444209613   270.9310   6   7   0.1603   0.1382   0.2901  -0.0271   0.0765  -0.0448   0.00    0.0
2020/11/05 02:49:29.999   43.790689375  125.444209572   270.9369   6   7   0.1601   0.1380   0.2896  -0.0272   0.0763  -0.0452   0.00    0.0
2020/11/05 02:49:59.999   43.790689417  125.444209527   270.9408   6   7   0.1598   0.1378   0.2891  -0.0274   0.0761  -0.0457   0.00    0.0
2020/11/05 02:50:29.999   43.790689446  125.444209467   270.9458   6   7   0.1596   0.1376   0.2887  -0.0275   0.0758  -0.0462   0.00    0.0
2020/11/05 02:50:59.999   43.790689477  125.444209421   270.9517   6   7   0.1593   0.1374   0.2882  -0.0276   0.0756  -0.0466   0.00    0.0
2020/11/05 02:51:29.999   43.790689503  125.444209375   270.9583   6   7   0.1591   0.1372   0.2878  -0.0278   0.0754  -0.0471   0.00    0.0
2020/11/05 02:51:59.999   43.790689537  125.444209334   270.9643   6   7   0.1588   0.1370   0.2873  -0.0279   0.0752  -0.0475   0.00    0.0
2020/11/05 02:52:29.999   43.790689564  125.444209300   270.9696   6   7   0.1586   0.1368   0.2869  -0.0280   0.0750  -0.0480   0.00    0.0
2020/11/05 02:52:59.999   43.790689599  125.444209265   270.9783   6   7   0.1584   0.1366   0.2864  -0.0281   0.0748  -0.0484   0.00    0.0
2020/11/05 02:53:29.999   43.790689627  125.444209225   270.9853   6   7   0.1581   0.1364   0.2860  -0.0282   0.0746  -0.0488   0.00    0.0
2020/11/05 02:53:59.999   43.790689656  125.444209188   270.9942   6   7   0.1579   0.1362   0.2855  -0.0284   0.0744  -0.0492   0.00    0.0
2020/11/05 02:54:29.999   43.790689685  125.444209129   270.9990   6   7   0.1577   0.1360   0.2851  -0.0285   0.0742  -0.0497   0.00    0.0
2020/11/05 02:54:59.999   43.790689717  125.444209082   271.0059   6   7   0.1574   0.1358   0.2846  -0.0286   0.0740  -0.0501   0.00    0.0
2020/11/05 02:55:29.999   43.790689754  125.444209047   271.0137   6   7   0.1572   0.1356   0.2842  -0.0287   0.0738  -0.0505   0.00    0.0
2020/11/05 02:55:59.999   43.790689787  125.444209031   271.0202   6   7   0.1570   0.1354   0.2837  -0.0288   0.0736  -0.0509   0.00    0.0
2020/11/05 02:56:29.999   43.790689821  125.444208988   271.0263   6   7   0.1567   0.1352   0.2833  -0.0289   0.0734  -0.0513   0.00    0.0
2020/11/05 02:56:59.999   43.790689845  125.444208956   271.0325   6   7   0.1565   0.1350   0.2829  -0.0290   0.0733  -0.0517   0.00    0.0
2020/11/05 02:57:29.999   43.790689876  125.444208936   271.0392   6   7   0.1563   0.1348   0.2824  -0.0291   0.0731  -0.0520   0.00    0.0
2020/11/05 02:57:59.999   43.790689902  125.444208890   271.0454   6   7   0.1561   0.1346   0.2820  -0.0292   0.0729  -0.0524   0.00    0.0
2020/11/05 02:58:29.999   43.790689925  125.444208852   271.0505   6   7   0.1558   0.1345   0.2815  -0.0293   0.0727  -0.0528   0.00    0.0
2020/11/05 02:58:59.999   43.790689946  125.444208805   271.0580   6   7   0.1556   0.1343   0.2811  -0.0294   0.0726  -0.0532   0.00    0.0
2020/11/05 02:59:29.999   43.790689965  125.444208771   271.0662   6   7   0.1554   0.1341   0.2807  -0.0294   0.0724  -0.0535   0.00    0.0
2020/11/05 02:59:59.999   43.790689982  125.444208721   271.0746   6   7   0.1552   0.1339   0.2802  -0.0295   0.0722  -0.0539   0.00    0.0
2020/11/05 03:00:29.999   43.790690002  125.444208689   271.0788   6   7   0.1550   0.1337   0.2798  -0.0296   0.0721  -0.0542   0.00    0.0
2020/11/05 03:00:59.999   43.790690032  125.444208657   271.0862   6   7   0.1547   0.1335   0.2794  -0.0297   0.0719  -0.0546   0.00    0.0
2020/11/05 03:01:29.999   43.790690059  125.444208623   271.0925   6   7   0.1545   0.1334   0.2790  -0.0298   0.0718  -0.0549   0.00    0.0
2020/11/05 03:01:59.999   43.790690087  125.444208575   271.0996   6   7   0.1543   0.1332   0.2785  -0.0299   0.0716  -0.0553   0.00    0.0
2020/11/05 03:02:29.999   43.790690110  125.444208541   271.1055   6   7   0.1541   0.1330   0.2781  -0.0299   0.0715  -0.0556   0.00    0.0
2020/11/05 03:02:59.999   43.790690127  125.444208509   271.1143   6   7   0.1539   0.1328   0.2777  -0.0300   0.0713  -0.0559   0.00    0.0
2020/11/05 03:03:29.999   43.790690145  125.444208484   271.1211   6   7   0.1537   0.1327   0.2773  -0.0301   0.0712  -0.0563   0.00    0.0
2020/11/05 03:03:59.999   43.790690166  125.444208455   271.1283   6   7   0.1535   0.1325   0.2768  -0.0302   0.0710  -0.0566   0.00    0.0
2020/11/05 03:04:29.999   43.790690190  125.444208438   271.1346   6   7   0.1533   0.1323   0.2764  -0.0302   0.0709  -0.0569   0.00    0.0
2020/11/05 03:04:59.999   43.790690212  125.444208420   271.1439   6   7   0.1531   0.1321   0.2760  -0.0303   0.0708  -0.0572   0.00    0.0
2020/11/05 03:05:29.999   43.790690226  125.444208392   271.1490   6   7   0.1529   0.1320   0.2756  -0.0304   0.0706  -0.0575   0.00    0.0
2020/11/05 03:05:59.999   43.790690244  125.444208362   271.1550   6   7   0.1527   0.1318   0.2752  -0.0304   0.0705  -0.0578   0.00    0.0
2020/11/05 03:06:29.999   43.790690267  125.444208330   271.1612   6   7   0.1524   0.1316   0.2747  -0.0305   0.0704  -0.0581   0.00    0.0
2020/11/05 03:06:59.999   43.790690286  125.444208293   271.1680   6   7   0.1522   0.1315   0.2743  -0.0306   0.0702  -0.0584   0.00    0.0
2020/11/05 03:07:29.999   43.790690301  125.444208259   271.1728   6   8   0.1520   0.1313   0.2738  -0.0305   0.0699  -0.0586   0.00    0.0
2020/11/05 03:07:59.999   43.790690312  125.444208245   271.1782   6   8   0.1518   0.1311   0.2733  -0.0305   0.0696  -0.0588   0.00    0.0
2020/11/05 03:08:29.999   43.790690329  125.444208197   271.1788   6   7   0.1517   0.1309   0.2729  -0.0304   0.0693  -0.0587   0.00    0.0
2020/11/05 03:08:59.999   43.790690349  125.444208149   271.1781   6   7   0.1515   0.1306   0.2725  -0.0304   0.0690  -0.0587   0.00    0.0
2020/11/05 03:09:29.999   43.790690372  125.444208098   271.1778   6   7   0.1513   0.1304   0.2721  -0.0304   0.0687  -0.0586   0.00    0.0
2020/11/05 03:09:59.999   43.790690402  125.444208054   271.1776   6   7   0.1512   0.1302   0.2718  -0.0304   0.0684  -0.0586   0.00    0.0
2020/11/05 03:10:29.999   43.790690427  125.444208015   271.1792   6   7   0.1510   0.1300   0.2714  -0.0303   0.0681  -0.0585   0.00    0.0
2020/11/05 03:10:59.999   43.790690445  125.444207972   271.1801   6   7   0.1509   0.1298   0.2710  -0.0303   0.0678  -0.0585   0.00    0.0
2020/11/05 03:11:29.999   43.790690461  125.444207932   271.1820   6   7   0.1507   0.1296   0.2706  -0.0303   0.0675  -0.0584   0.00    0.0
2020/11/05 03:11:59.999   43.790690482  125.444207879   271.1801   6   7   0.1505   0.1295   0.2702  -0.0303   0.0672  -0.0584   0.00    0.0
2020/11/05 03:12:29.999   43.790690497  125.444207850   271.1813   6   7   0.1504   0.1293   0.2699  -0.0302   0.0670  -0.0583   0.00    0.0
2020/11/05 03:12:59.999   43.790690507  125.444207813   271.1850   6   7   0.1502   0.1291   0.2695  -0.0302   0.0667  -0.0583   0.00    0.0
2020/11/05 03:13:29.999   43.790690528  125.444207787   271.1872   6   7   0.1501   0.1289   0.2691  -0.0302   0.0664  -0.0582   0.00    0.0
2020/11/05 03:13:59.999   43.790690552  125.444207726   271.1858   6   8   0.1499   0.1286   0.2686  -0.0301   0.0660  -0.0581   0.00    0.0
2020/11/05 03:14:29.999   43.790690554  125.444207659   271.1810   6   9   0.1497   0.1284   0.2682  -0.0300   0.0655  -0.0581   0.00    0.0
2020/11/05 03:14:59.999   43.790690555  125.444207589   271.1757   6   9   0.1495   0.1282   0.2677  -0.0299   0.0651  -0.0581   0.00    0.0
2020/11/05 03:15:29.999   43.790690565  125.444207517   271.1694   6   9   0.1493   0.1280   0.2672  -0.0298   0.0646  -0.0582   0.00    0.0
2020/11/05 03:15:59.999   43.790690588  125.444207450   271.1634   6   9   0.1491   0.1277   0.2667  -0.0297   0.0642  -0.0582   0.00    0.0
2020/11/05 03:16:29.999   43.790690595  125.444207401   271.1594   6   9   0.1489   0.1275   0.2662  -0.0296   0.0638  -0.0582   0.00    0.0
2020/11/05 03:16:59.999   43.790690610  125.444207348   271.1558   6   9   0.1487   0.1273   0.2657  -0.0296   0.0634  -0.0582   0.00    0.0
2020/11/05 03:17:29.999   43.790690623  125.444207294   271.1496   6   9   0.1485   0.1271   0.2653  -0.0295   0.0630  -0.0582   0.00    0.0
2020/11/05 03:17:59.999   43.790690627  125.444207240   271.1468   6   9   0.1483   0.1269   0.2648  -0.0294   0.0626  -0.0582   0.00    0.0
2020/11/05 03:18:29.999   43.790690631  125.444207189   271.1460   6   9   0.1481   0.1266   0.2644  -0.0293   0.0622  -0.0583   0.00    0.0
2020/11/05 03:18:59.999   43.790690626  125.444207149   271.1472   6   9   0.1479   0.1264   0.2639  -0.0292   0.0618  -0.0583   0.00    0.0
2020/11/05 03:19:29.999   43.790690631  125.444207083   271.1435   6   9   0.1477   0.1262   0.2634  -0.0291   0.0614  -0.0583   0.00    0.0
2020/11/05 03:19:59.999   43.790690633  125.444207021   271.1395   6   9   0.1475   0.1260   0.2630  -0.0290   0.0610  -0.0583   0.00    0.0
2020/11/05 03:20:29.999   43.790690638  125.444206970   271.1369   6   9   0.1473   0.1258   0.2625  -0.0290   0.0606  -0.0583   0.00    0.0
2020/11/05 03:20:59.999   43.790690658  125.444206927   271.1344   6   9   0.1471   0.1256   0.2621  -0.0289   0.0602  -0.0583   0.00    0.0
2020/11/05 03:21:29.999   43.790690672  125.444206887   271.1335   6   9   0.1469   0.1254   0.2617  -0.0288   0.0599  -0.0584   0.00    0.0
2020/11/05 03:21:59.999   43.790690680  125.444206859   271.1312   6   9   0.1467   0.1252   0.2612  -0.0287   0.0595  -0.0584   0.00    0.0
2020/11/05 03:22:29.999   43.790690680  125.444206809   271.1288   6   9   0.1465   0.1250   0.2608  -0.0286   0.0592  -0.0584   0.00    0.0
2020/11/05 03:22:59.999   43.790690681  125.444206777   271.1280   6   9   0.1463   0.1248   0.2604  -0.0285   0.0588  -0.0584   0.00    0.0
2020/11/05 03:23:29.999   43.790690687  125.444206724   271.1262   6   9   0.1461   0.1246   0.2599  -0.0284   0.0585  -0.0585   0.00    0.0
2020/11/05 03:23:59.999   43.790690694  125.444206691   271.1258   6   9   0.1459   0.1244   0.2595  -0.0283   0.0581  -0.0585   0.00    0.0
2020/11/05 03:24:29.999   43.790690691  125.444206667   271.1285   6   9   0.1457   0.1242   0.2591  -0.0282   0.0578  -0.0585   0.00    0.0
2020/11/05 03:24:59.999   43.790690698  125.444206620   271.1268   6   9   0.1456   0.1240   0.2587  -0.0281   0.0575  -0.0585   0.00    0.0
2020/11/05 03:25:29.999   43.790690704  125.444206574   271.1231   6   9   0.1454   0.1238   0.2583  -0.0281   0.0571  -0.0585   0.00    0.0
2020/11/05 03:25:59.999   43.790690688  125.444206533   271.1196   6   8   0.1452   0.1236   0.2579  -0.0279   0.0569  -0.0584   0.00    0.0
2020/11/05 03:26:29.999   43.790690671  125.444206507   271.1197   6   8   0.1451   0.1235   0.2575  -0.0277   0.0567  -0.0583   0.00    0.0
2020/11/05 03:26:59.999   43.790690670  125.444206455   271.1154   6   8   0.1449   0.1233   0.2572  -0.0275   0.0565  -0.0581   0.00    0.0
2020/11/05 03:27:29.999   43.790690652  125.444206418   271.1171   6   8   0.1448   0.1231   0.2569  -0.0273   0.0562  -0.0580   0.00    0.0
2020/11/05 03:27:59.999   43.790690646  125.444206378   271.1150   6   8   0.1446   0.1230   0.2565  -0.0271   0.0560  -0.0579   0.00    0.0
2020/11/05 03:28:29.999   43.790690638  125.444206337   271.1133   6   8   0.1445   0.1228   0.2562  -0.0270   0.0558  -0.0578   0.00    0.0
2020/11/05 03:28:59.999   43.790690628  125.444206304   271.1129   6   8   0.1443   0.1226   0.2558  -0.0268   0.0556  -0.0576   0.00    0.0
2020/11/05 03:29:29.999   43.790690610  125.444206281   271.1136   6   8   0.1442   0.1225   0.2555  -0.0266   0.0554  -0.0575   0.00    0.0
