     2.11           OBSERVATION DATA    G (GPS)             RINEX VERSION / TYPE
teqc  2018Dec12     gpsops              20201106 00:21:04UTCPGM / RUN BY / DATE
Linux 2.6.32-573.12.1.x86_64|x86_64|gcc -static|Linux 64|=+ COMMENT
BIT 2 OF LLI FLAGS DATA COLLECTED UNDER A/S CONDITION       COMMENT
CHAN                                                        MARKER NAME
21611M002                                                   MARKER NUMBER
GGN                 Changchun Observatory,NAOC,CAS          OBSERVER / AGENCY
UC2200511014        ASHTECH UZ-12       CQ00                REC # / TYPE / VERS
CR6200503027        ASH701945E_M    NONE                    ANT # / TYPE
 -2674431.9143  3757145.2969  4391528.8732                  APPROX POSITION XYZ
        0.2500        0.0000        0.0000                  ANTENNA: DELTA H/E/N
     1     1                                                WAVELENGTH FACT L1/2
     7    L1    L2    P1    P2    C1    S1    S2            # / TYPES OF OBSERV
    30.0000                                                 INTERVAL
Forced Modulo Decimation to 30 seconds                      COMMENT
                                                            COMMENT
 SNR is mapped to RINEX snr flag value [0-9]                COMMENT
  L1 & L2: min(max(int(snr_dBHz/6), 0), 9)                  COMMENT
pseudorange smoothing corrections not applied               COMMENT
  2020    11     5     0     0    0.0000000     GPS         TIME OF FIRST OBS
                                                            END OF HEADER
 20 11  5  0  0  0.0000000  0  9G06G05G19G02G17G09G29G25G12
 -16937392.94848 -13142271.05148  21741790.1704   21741795.3074   21741789.723
        52.0004         48.0004
 -19071219.68649 -14801699.64548  21320969.2344   21320970.9014   21320969.020
        58.0004         53.0004
  -4303268.56547  -3342357.67847  23794626.2684   23794628.5694   23794626.487
        47.0004         42.0004
 -20574486.75149 -15987006.58148  21203769.5634   21203770.0914   21203770.460
        55.0004         51.0004
   1513481.41346   1185564.83846  24890957.9314   24890960.4354   24890955.931
        41.0004         36.0004
 -12210486.86148  -9477493.49547  22640674.8744   22640679.9774   22640674.830
        50.0004         45.0004
  -3164923.37148  -2412076.11247  24354384.4394   24354386.5324   24354385.245
        49.0004         44.0004
    316648.44248    271878.28147  24728467.2154   24728473.2094   24728467.610
        48.0004         43.0004
  -1270488.56648   -943538.89847  24722288.3654   24722291.9154   24722285.390
        49.0004         44.0004
 20 11  5  0  0 30.0000000  0  9G06G05G19G02G17G09G29G25G12
 -16878680.93848 -13096521.47848  21752963.0734   21752967.8514   21752962.009
        52.0004         48.0004
 -19128552.90849 -14846374.87548  21310058.7464   21310060.9284   21310059.031
        58.0004         53.0004
  -4186081.53447  -3251043.16347  23816926.9034   23816928.4274   23816928.554
        46.0004         42.0004
 -20597660.36749 -16005063.95648  21199359.9814   21199360.4834   21199360.921
        55.0004         51.0004
   1625664.92446   1272980.47746  24912304.8774   24912310.0324   24912304.403
        41.0004         37.0004
 -12148447.06348  -9429150.80347  22652481.4234   22652485.5884   22652480.842
        50.0004         45.0004
  -3263717.77548  -2489058.78147  24335583.8394   24335586.5924   24335584.220
        49.0004         44.0004
    366564.90548    310774.15147  24737966.2254   24737972.4124   24737966.894
        48.0004         44.0004
  -1185334.11448   -877184.85447  24738493.7284   24738496.9544   24738493.188
        49.0004         44.0004
 20 11  5  0  1  0.0000000  0  9G06G05G19G02G17G09G29G25G12
 -16819671.47348 -13050540.09848  21764192.0564   21764197.4124   21764191.795
        52.0004         48.0004
 -19185542.01549 -14890781.96349  21299214.3594   21299216.1034   21299214.102
        58.0004         54.0004
  -4068743.05747  -3159610.62646  23839254.8764   23839256.6864   23839255.665
        46.0004         41.0004
 -20620553.37649 -16022902.67348  21195003.4094   21195004.0574   21195004.004
        55.0004         51.0004
   1737904.34247   1360439.68846  24933662.2184   24933665.8114   24933662.529
        42.0004         37.0004
 -12085925.99848  -9380433.12147  22664378.5844   22664383.5024   22664377.584
        49.0004         45.0004
  -3362252.88748  -2565839.39047  24316832.4714   24316835.4984   24316833.071
        49.0004         44.0004
    416901.13848    349997.14947  24747544.7094   24747551.6104   24747545.356
        49.0004         44.0004
  -1100000.12348   -810690.87647  24754732.3534   24754735.5074   24754733.874
        48.0004         43.0004
 20 11  5  0  1 30.0000000  0  9G06G05G19G02G17G09G29G25G12
 -16760364.73348 -13004327.09048  21775477.7864   21775483.0814   21775477.299
        52.0004         48.0004
 -19242186.48549 -14934920.50849  21288435.4344   21288437.0664   21288435.292
        58.0004         54.0004
  -3951256.01647  -3068062.34246  23861611.8724   23861614.1094   23861613.799
        46.0004         41.0004
 -20643164.91249 -16040522.06148  21190700.7354   21190701.1434   21190701.183
        55.0004         51.0004
   1850197.27447   1447940.60146  24955032.3544   24955034.9054   24955031.279
        42.0004         37.0004
 -12022925.82848  -9331342.08847  22676366.7854   22676370.9324   22676366.725
        49.0004         45.0004
  -3460526.09548  -2642415.90047  24298132.9304   24298135.4724   24298133.965
        49.0004         45.0004
    467654.84948    389545.45147  24757204.1964   24757209.9804   24757203.712
        49.0004         44.0004
  -1014488.88748   -744058.80847  24771005.3094   24771008.0504   24771007.945
        48.0004         44.0004
 20 11  5  0  2  0.0000000  0  9G06G05G19G02G17G09G29G25G12
 -16700761.06848 -12957882.70648  21786820.3064   21786825.4644   21786819.509
        52.0004         48.0004
 -19298486.31649 -14978790.49749  21277721.6264   21277724.0944   21277721.851
        58.0004         54.0004
  -3833623.61347  -2976400.75846  23883996.4864   23883998.9504   23883997.708
        46.0004         41.0004
 -20665493.67449 -16057921.10548  21186451.6364   21186452.2344   21186452.281
        55.0004         51.0004
   1962541.23447   1535481.28246  24976409.7994   24976414.1524   24976409.968
        42.0004         38.0004
 -11959448.81548  -9281879.49247  22688446.3144   22688449.9844   22688445.255
        49.0004         45.0004
  -3558534.49148  -2718786.07947  24279482.7814   24279484.5654   24279483.327
        49.0004         44.0004
    518823.33648    429416.96347  24766940.2664   24766946.0054   24766938.563
        48.0004         43.0004
   -928804.02248   -677291.41247  24787310.0244   24787313.1774   24787311.296
        48.0004         43.0004
 20 11  5  0  2 30.0000000  0  9G06G05G19G02G17G09G29G25G12
 -16640860.64348 -12911207.08048  21798218.9614   21798224.4924   21798218.587
        52.0004         48.0004
 -19354440.68349 -15022391.29849  21267074.0344   21267075.8714   21267073.576
        58.0004         54.0004
  -3715847.80347  -2884627.45046  23906408.4444   23906410.9554   23906409.411
        45.0004         41.0004
 -20687538.40449 -16075098.82948  21182256.8544   21182257.4234   21182257.321
        55.0004         51.0004
   2074934.10247   1623060.06846  24997797.4614   24997802.9594   24997797.682
        42.0004         37.0004
 -11895497.07948  -9232046.99147  22700615.4404   22700620.9084   22700615.787
        49.0004         45.0004
  -3656275.44348  -2794947.85047  24260883.2734   24260885.4594   24260883.395
        49.0004         44.0004
    570404.20147    469609.80247  24776753.7604   24776761.1014   24776753.475
        47.0004         42.0004
   -842948.89648   -610391.37547  24803648.6574   24803648.6884   24803646.336
        48.0004         43.0004
 20 11  5  0  3  0.0000000  0  9G06G05G19G02G17G09G29G25G12
 -16580663.84248 -12864300.51648  21809674.3124   21809679.2964   21809673.587
        52.0004         48.0004
 -19410049.34949 -15065722.72349  21256491.6464   21256493.9394   21256491.502
        58.0004         54.0004
  -3597931.44647  -2792744.61146  23928847.7874   23928850.2484   23928848.349
        45.0004         40.0004
 -20709298.01749 -16092054.38148  21178116.1554   21178116.5874   21178117.055
        55.0004         51.0004
   2187373.28847   1710674.93946  25019192.8124   25019198.5914   25019194.222
        42.0004         37.0004
 -11831072.96948  -9181846.39047  22712874.7544   22712880.2104   22712874.701
        49.0004         45.0004
  -3753746.46848  -2870899.30147  24242335.3604   24242336.6064   24242335.385
        49.0004         44.0004
    622394.84947    510121.96747  24786648.0344   24786655.1264   24786647.062
        47.0004         42.0004
   -756927.15748   -543361.47647  24820016.7074   24820020.6394   24820015.466
        48.0004         43.0004
 20 11  5  0  3 30.0000000  0  9G06G05G19G02G17G09G29G25G12
 -16520170.90848 -12817163.19048  21821185.7404   21821190.0244   21821185.734
        52.0004         48.0004
 -19465311.91549 -15108784.45649  21245975.6854   21245978.0024   21245975.186
        58.0004         54.0004
  -3479876.98347  -2700754.14246  23951313.0354   23951314.2764   23951314.493
        45.0004         40.0004
 -20730771.10449 -16108786.66348  21174029.7664   21174030.5394   21174030.622
        55.0004         51.0004
   2299856.57447   1798324.17346  25040598.6634   25040602.7844   25040598.304
        42.0004         37.0004
 -11766178.62748  -9131279.38447  22725223.7374   22725228.8624   22725224.035
        49.0004         45.0004
  -3850944.50848  -2946638.02147  24223839.1744   24223840.9584   24223837.784
        49.0004         45.0004
    674792.66547    550951.40547  24796620.4624   24796626.7854   24796621.453
        47.0004         43.0004
   -670741.76948   -476204.04047  24836418.4294   24836420.6144   24836416.054
        48.0004         43.0004
 20 11  5  0  4  0.0000000  0  9G06G05G19G02G17G09G29G25G12
 -16459382.11448 -12769795.32848  21832753.4934   21832758.6094   21832752.634
        52.0004         48.0004
 -19520228.11149 -15151576.30049  21235525.9494   21235527.7934   21235525.652
        58.0004         54.0004
  -3361686.87347  -2608658.01846  23973802.3694   23973805.3184   23973805.194
        44.0004         39.0004
 -20751956.41949 -16125294.70548  21169998.5814   21169999.0164   21169999.326
        56.0004         51.0004
   2412381.78447   1886006.09346  25062012.5884   25062016.2354   25062012.040
        42.0004         37.0004
 -11700816.34948  -9080347.75547  22737661.4424   22737666.8064   22737661.797
        49.0004         44.0004
  -3947866.96348  -3022161.98347  24205395.3124   24205397.0724   24205396.001
        49.0004         45.0004
    727595.17048    592096.16847  24806668.0114   24806674.3584   24806667.789
        48.0004         43.0004
   -584395.45748   -408921.24147  24852848.5164   24852853.2094   24852847.717
        48.0004         43.0004
 20 11  5  0  4 30.0000000  0  9G06G05G19G02G17G09G29G25G12
 -16398297.73848 -12722197.14748  21844377.2844   21844382.2204   21844376.790
        52.0004         48.0004
 -19574797.69249 -15194098.04749  21225141.2544   21225143.4954   21225141.180
        58.0004         54.0004
  -3243363.51447  -2516458.04246  23996319.1204   23996322.8354   23996321.172
        44.0004         39.0004
 -20772853.05349 -16141577.80148  21166022.2324   21166022.6614   21166022.911
        56.0004         51.0004
   2524946.76546   1973719.00646  25083431.2824   25083437.7284   25083432.735
        41.0004         36.0004
 -11634988.37948  -9029053.24047  22750188.7374   22750193.6564   22750188.107
        49.0004         45.0004
  -4044510.19948  -3097468.39347  24187004.4504   24187006.0844   24187007.051
        49.0004         45.0004
    780799.75648    633554.26947  24816792.6714   24816799.9544   24816792.822
        48.0004         43.0004
   -497891.63547   -341515.70847  24869309.7434   24869314.2194   24869311.749
        47.0004         43.0004
 20 11  5  0  5  0.0000000  0  9G06G05G19G02G17G09G29G25G12
 -16336918.21648 -12674368.98448  21856057.4994   21856062.5904   21856056.918
        52.0004         48.0004
 -19629020.34849 -15236349.46449  21214822.9814   21214825.1024   21214822.353
        58.0004         54.0004
  -3124910.21347  -2424156.84746  24018860.3844   24018862.7554   24018861.697
        44.0004         39.0004
 -20793460.14949 -16157635.28848  21162100.8564   21162100.9964   21162101.407
        56.0004         51.0004
   2637548.69846   2061460.70145  25104858.3554   25104865.6764   25104859.573
        40.0004         35.0004
 -11568697.07548  -8977397.69447  22762804.0704   22762809.0364   22762803.502
        49.0004         45.0004
  -4140872.50848  -3172555.89147  24168667.3284   24168668.9194   24168667.788
        49.0004         44.0004
    834403.69048    675323.53847  24826992.7784   24826999.5864   24826992.891
        48.0004         43.0004
   -411234.07547   -273990.42147  24885801.3064   24885803.9824   24885804.336
        47.0004         43.0004
 20 11  5  0  5 30.0000000  0  9G06G05G19G02G17G09G29G25G12
 -16275243.63148 -12626310.89348  21867793.9924   21867799.0284   21867792.959
        52.0004         48.0004
 -19682895.62849 -15278330.19749  21204571.0204   21204572.9354   21204570.926
        58.0004         54.0004
  -3006328.90247  -2331755.86646  24041427.0164   24041427.9784   24041428.158
        44.0004         40.0004
 -20813775.81449 -16173465.67948  21158234.8384   21158235.2084   21158235.500
        56.0004         51.0004
   2750185.56046   2149229.66945  25126294.2024   25126298.5204   25126294.523
        40.0004         35.0004
 -11501944.57448  -8925382.76447  22775505.9364   22775510.8034   22775506.660
        49.0004         44.0004
  -4236950.63648  -3247421.95647  24150384.7344   24150386.6284   24150384.924
        49.0004         45.0004
    888404.64247    717402.12447  24837269.2634   24837277.0194   24837269.568
        47.0004         43.0004
   -324425.73147   -206347.62847  24902320.1024   24902324.3784   24902320.425
        47.0004         42.0004
 20 11  5  0  6  0.0000000  0  9G06G05G19G02G17G09G29G25G12
 -16213274.45548 -12578023.24447  21879585.8034   21879591.4164   21879585.732
        52.0004         47.0004
 -19736423.15349 -15320039.95449  21194385.1024   21194387.1464   21194385.124
        58.0004         54.0004
  -2887622.17647  -2239257.17746  24064014.9874   24064017.7834   24064016.282
        44.0004         40.0004
 -20833799.00049 -16189068.16248  21154424.4074   21154424.7854   21154424.774
        56.0004         51.0004
   2862855.08746   2237024.07745  25147730.8554   25147740.9784   25147735.324
        39.0004         34.0004
 -11434733.29348  -8873010.35047  22788294.9764   22788301.1014   22788294.960
        49.0004         44.0004
  -4332741.76548  -3322064.38247  24132155.8164   24132158.5904   24132156.574
        50.0004         45.0004
    942799.74747    759787.88147  24847621.0114   24847626.7274   24847621.488
        47.0004         42.0004
   -237469.83647   -138589.83047  24918866.7114   24918869.9364   24918866.492
        47.0004         43.0004
 20 11  5  0  6 30.0000000  0  8G06G05G19G02G09G29G25G12
 -16151010.90948 -12529506.23047  21891434.7224   21891439.8644   21891434.178
        52.0004         47.0004
 -19789602.54349 -15361478.44249  21184265.5384   21184267.3434   21184265.364
        58.0004         54.0004
  -2768792.60947  -2146662.77546  24086627.0114   24086630.9514   24086629.082
        45.0004         40.0004
 -20853528.74549 -16204441.98748  21150670.0384   21150670.2644   21150670.894
        56.0004         51.0004
 -11367065.44848  -8820282.18147  22801172.5954   22801178.5074   22801171.443
        49.0004         44.0004
  -4428243.07648  -3396480.95647  24113981.6884   24113985.1534   24113981.805
        50.0004         45.0004
    997586.48047    802478.78647  24858046.9414   24858051.5104   24858046.303
        47.0004         42.0004
   -150369.22547    -70719.30947  24935440.9704   24935444.9584   24935443.293
        47.0004         43.0004
 20 11  5  0  7  0.0000000  0  8G06G05G19G02G09G29G25G12
 -16088453.38848 -12480760.14247  21903338.7244   21903343.7264   21903338.835
        52.0004         47.0004
 -19842433.84849 -15402645.67949  21174211.6724   21174213.9334   21174210.765
        58.0004         54.0004
  -2649842.96847  -2053974.81846  24109263.3684   24109265.5114   24109264.807
        45.0004         41.0004
 -20872963.95049 -16219586.30348  21146971.5354   21146971.9544   21146972.190
        56.0004         51.0004
 -11298943.40748  -8767200.09547  22814135.6844   22814140.4284   22814135.594
        49.0004         44.0004
  -4523451.99648  -3470669.72247  24095865.0144   24095867.7264   24095864.164
        50.0004         45.0004
   1052762.21847    845472.84647  24868545.3114   24868551.5494   24868545.053
        47.0004         42.0004
    -63127.84147     -2739.03747  24952042.1184   24952047.1194   24952042.131
        47.0004         42.0004
 20 11  5  0  7 30.0000000  0  8G06G05G19G02G09G29G25G12
 -16025602.23248 -12431785.24247  21915298.9824   21915304.8924   21915298.929
        52.0004         47.0004
 -19894916.33249 -15443541.11149  21164224.7844   21164226.8744   21164224.775
        58.0004         54.0004
  -2530775.90247  -1961195.33546  24131920.4174   24131923.5074   24131922.039
        46.0004         41.0004
 -20892103.31749 -16234500.09948  21143329.5234   21143329.6654   21143330.049
        56.0004         51.0004
 -11230369.54648  -8713765.92947  22827184.8704   22827189.7734   22827184.462
        49.0004         44.0004
  -4618365.77948  -3544628.52847  24077803.5654   24077806.3854   24077803.721
        50.0004         45.0004
   1108324.24747    888767.91747  24879118.2954   24879125.0704   24879118.974
        47.0004         42.0004
     24251.75047     65348.93546  24968670.8854   24968673.7854   24968669.364
        46.0004         41.0004
 20 11  5  0  8  0.0000000  0  8G06G05G19G02G09G29G25G12
 -15962457.66548 -12382581.71547  21927315.1214   21927320.5374   21927314.273
        52.0004         47.0004
 -19947049.69949 -15484164.50649  21154303.9704   21154306.0994   21154303.720
        58.0004         54.0004
  -2411593.77047  -1868326.22446  24154600.4544   24154603.0334   24154600.141
        46.0004         41.0004
 -20910945.64249 -16249182.43148  21139743.6134   21139744.1794   21139744.292
        56.0004         51.0004
 -11161346.06148  -8659981.41647  22840320.7504   22840324.5654   22840320.623
        49.0004         44.0004
  -4712981.33648  -3618354.94447  24059797.9924   24059800.9664   24059797.645
        50.0004         45.0004
   1164269.94547    932361.91447  24889764.8444   24889771.6234   24889765.707
        47.0004         42.0004
    111766.01447    133541.81546  24985323.8144   24985326.4324   24985321.846
        46.0004         41.0004
 20 11  5  0  8 30.0000000  0  8G06G05G19G02G09G29G25G12
 -15899020.16548 -12333149.92347  21939386.9804   21939392.8564   21939386.033
        52.0004         47.0004
 -19998834.04449 -15524515.93849  21144449.7224   21144451.5324   21144449.505
        58.0004         54.0004
  -2292299.37947  -1775369.60847  24177301.1054   24177304.6174   24177302.592
        46.0004         42.0004
 -20929489.76949 -16263632.40248  21136215.0354   21136215.4404   21136215.672
        56.0004         51.0004
 -11091875.43348  -8605848.47647  22853539.6764   22853543.6204   22853538.932
        49.0004         44.0004
  -4807296.14648  -3691846.99647  24041851.5284   24041853.9574   24041852.770
        50.0004         46.0004
   1220596.61547    976252.77547  24900483.6084   24900490.8104   24900484.001
        47.0004         42.0004
    199411.82047    201837.20346  25002003.1094   25002006.3584   25002001.274
        46.0004         41.0004
 20 11  5  0  9  0.0000000  0  8G06G05G19G02G09G29G25G12
 -15835289.96448 -12283490.05747  21951514.1864   21951519.8674   21951513.862
        52.0004         47.0004
 -20050268.75049 -15564594.92749  21134662.2174   21134664.1174   21134662.267
        58.0004         54.0004
  -2172894.99747  -1682327.31747  24200023.0614   24200025.5594   24200024.014
        46.0004         42.0004
 -20947734.42749 -16277849.02248  21132743.0624   21132743.5894   21132744.008
        56.0004         51.0004
 -11021959.94748  -8551368.89947  22866844.1744   22866848.9074   22866845.212
        49.0004         44.0004
  -4901307.31148  -3765102.44047  24023961.6534   24023964.2134   24023962.469
        50.0004         46.0004
   1277301.53147   1020438.37447  24911273.8834   24911281.1054   24911273.553
        47.0004         42.0004
    287185.62047    270232.34647  25018704.3254   25018708.9714   25018702.566
        46.0004         42.0004
 20 11  5  0  9 30.0000000  0  8G06G05G19G02G09G29G25G12
 -15771267.51148 -12233602.45747  21963697.1404   21963703.0924   21963696.893
        52.0004         47.0004
 -20101353.63249 -15604401.32249  21124941.0964   21124942.9044   21124941.103
        58.0004         54.0004
  -2053383.41747  -1589201.46246  24222765.4494   24222768.3874   24222767.041
        46.0004         41.0004
 -20965678.51049 -16291831.42848  21129328.4974   21129328.7424   21129329.226
        56.0004         51.0004
 -10951602.00348  -8496544.55347  22880232.6614   22880237.7024   22880231.702
        49.0004         44.0004
  -4995012.29648  -3838119.30447  24006130.0824   24006131.8484   24006131.131
        50.0004         45.0004
   1334381.97347   1064916.62647  24922136.4764   24922144.0504   24922136.397
        47.0004         43.0004
    375084.59447    338725.01947  25035432.1364   25035435.1714   25035431.051
        46.0004         42.0004
 20 11  5  0 10  0.0000000  0  8G06G05G19G02G09G29G25G12
 -15706953.05848 -12183487.33647  21975935.8064   21975941.4044   21975934.972
        52.0004         47.0004
 -20152088.40149 -15643934.90549  21115286.4894   21115288.4614   21115286.414
        58.0004         54.0004
  -1933766.89147  -1495993.86846  24245527.7654   24245531.6004   24245528.903
        46.0004         41.0004
 -20983320.83049 -16305578.69348  21125971.2884   21125971.7664   21125971.989
        56.0004         51.0004
 -10880803.92548  -8441377.24147  22893705.5824   22893710.7284   22893705.832
        49.0004         44.0004
  -5088407.94648  -3910895.14047  23988357.1234   23988359.2374   23988355.594
        50.0004         45.0004
   1391835.41847   1109685.48947  24933069.2824   24933076.2954   24933068.340
        47.0004         43.0004
    463105.50247    407312.71647  25052183.0834   25052183.8784   25052183.467
        46.0004         42.0004
 20 11  5  0 10 30.0000000  0  8G06G05G19G02G09G29G25G12
 -15642347.05148 -12133145.02047  21988230.1914   21988235.3674   21988229.879
        52.0004         47.0004
 -20202472.98149 -15683195.60949  21105698.4404   21105700.8224   21105698.040
        58.0004         54.0004
  -1814048.29947  -1402706.73546  24268310.2464   24268313.1264   24268310.859
        46.0004         41.0004
 -21000660.21649 -16319089.90648  21122672.0004   21122672.2714   21122672.690
        56.0004         51.0004
 -10809568.19548  -8385868.90247  22907260.5864   22907266.1324   22907260.961
        49.0004         44.0004
  -5181491.76748  -3983427.97347  23970643.5474   23970645.6924   23970644.261
        50.0004         46.0004
   1449658.90248   1154742.71047  24944073.5064   24944079.8434   24944074.201
        48.0004         43.0004
    551245.06847    475992.87647  25068954.6214   25068957.7154   25068955.761
        46.0004         42.0004
 20 11  5  0 11  0.0000000  0  8G06G05G19G02G09G29G25G12
 -15577449.82148 -12082575.78347  22000579.2764   22000585.3554   22000579.594
        51.0004         47.0004
 -20252506.86749 -15722183.04749  21096177.6314   21096179.7294   21096177.688
        59.0004         54.0004
  -1694229.87747  -1309341.80446  24291111.8324   24291113.0354   24291111.477
        45.0004         40.0004
 -21017695.46349 -16332364.12948  21119430.1184   21119430.6314   21119431.115
        56.0004         51.0004
 -10737897.08648  -8330021.29947  22920900.0214   22920904.8784   22920899.721
        49.0004         44.0004
  -5274260.58648  -4055715.35747  23952990.4254   23952993.0904   23952989.751
        50.0004         46.0004
   1507849.80147   1200086.20347  24955146.2304   24955152.1574   24955145.433
        47.0004         43.0004
    639500.11447    544763.01946  25085747.8594   25085751.6684   25085748.199
        46.0004         41.0004
 20 11  5  0 11 30.0000000  0  8G06G05G19G02G09G29G25G12
 -15512261.75648 -12031779.90947  22012984.2894   22012990.2304   22012983.727
        51.0004         47.0004
 -20302189.89249 -15760897.08649  21086723.1954   21086725.1644   21086723.095
        59.0004         54.0004
  -1574314.68047  -1215901.43546  24313929.9774   24313931.6174   24313931.053
        45.0004         40.0004
 -21034425.42649 -16345400.47048  21116246.6074   21116246.9414   21116247.605
        56.0004         51.0004
 -10665793.05948  -8273836.37347  22934620.3164   22934625.0394   22934620.375
        49.0004         44.0004
  -5366711.99748  -4127755.42647  23935397.6984   23935399.6224   23935397.746
        50.0004         46.0004
   1566405.45047   1245713.92447  24966288.3044   24966296.7914   24966287.726
        47.0004         42.0004
    727867.21247    613620.47347  25102565.6374   25102567.6134   25102565.776
        46.0004         42.0004
 20 11  5  0 12  0.0000000  0  8G06G05G19G02G09G29G25G12
 -15446783.27848 -11980757.74747  22025444.4564   22025450.3704   22025444.405
        51.0004         47.0004
 -20351521.82649 -15799337.55149  21077335.4374   21077337.4134   21077335.103
        59.0004         54.0004
  -1454305.18247  -1122387.60646  24336766.6364   24336769.3454   24336768.050
        44.0004         39.0004
 -21050849.20949 -16358198.22648  21113121.2434   21113121.5864   21113121.903
        56.0004         51.0004
 -10593258.56648  -8217316.01247  22948423.7974   22948427.5684   22948423.791
        49.0004         44.0004
  -5458843.82748  -4199546.46347  23917865.3054   23917868.2414   23917866.343
        50.0004         46.0004
   1625322.99248   1291623.66147  24977501.0494   24977506.9624   24977501.686
        48.0004         43.0004
    816343.15147    682562.72146  25119400.0154   25119406.1764   25119400.439
        46.0004         41.0004
 20 11  5  0 12 30.0000000  0  8G06G05G19G02G09G29G25G12
 -15381014.69248 -11929509.52447  22037960.0554   22037965.0234   22037959.986
        52.0004         47.0004
 -20400502.53049 -15837504.33449  21068014.9304   21068016.7724   21068014.772
        59.0004         54.0004
  -1334203.56147  -1028801.99446  24359621.6114   24359623.7734   24359622.575
        43.0004         38.0004
 -21066965.15849 -16370756.11848  21110054.3014   21110054.9364   21110054.903
        56.0004         51.0004
 -10520295.92348  -8160462.02947  22962308.0694   22962312.5394   22962308.277
        49.0004         44.0004
  -5550651.92148  -4271085.23147  23900394.9944   23900397.4024   23900395.065
        50.0004         46.0004
   1684599.75947   1337813.28747  24988780.6284   24988786.5824   24988783.631
        47.0004         42.0004
    904925.07747    751587.53847  25136257.3744   25136261.6604   25136258.278
        46.0004         42.0004
 20 11  5  0 13  0.0000000  0  8G06G05G19G02G09G29G25G12
 -15314956.46648 -11878035.60347  22050531.0324   22050536.3824   22050530.241
        52.0004         47.0004
 -20449131.72249 -15875397.20949  21058761.0434   21058762.9114   21058761.022
        59.0004         54.0004
  -1214012.48147   -935146.69746  24382492.2634   24382495.3284   24382495.584
        42.0004         37.0004
 -21082772.37349 -16383073.44148  21107046.2904   21107046.8784   21107046.905
        56.0004         51.0004
 -10446907.62048  -8103276.35847  22976272.7374   22976278.5104   22976272.825
        49.0004         44.0004
  -5642134.08248  -4342370.04547  23882987.3834   23882989.0514   23882987.463
        51.0004         46.0004
   1744232.89447   1384280.61947  25000128.6524   25000135.4304   25000128.448
        47.0004         42.0004
    993609.65947    820692.39547  25153134.0204   25153137.9144   25153135.123
        46.0004         42.0004
 20 11  5  0 13 30.0000000  0  8G06G05G19G02G09G29G25G12
 -15248609.05548 -11826336.35747  22063156.1404   22063161.7324   22063155.369
        51.0004         47.0004
 -20497409.15949 -15913015.99149  21049574.3274   21049576.0494   21049574.325
        59.0004         54.0004
  -1093734.86947   -841423.97046  24405381.6824   24405383.5834   24405383.158
        43.0004         38.0004
 -21098269.93749 -16395149.47548  21104097.1304   21104097.7094   21104097.623
        56.0004         51.0004
 -10373096.16248  -8045760.96947  22990319.8354   22990324.7524   22990318.777
        49.0004         44.0004
  -5733287.82648  -4413398.93647  23865641.0774   23865643.4434   23865640.313
        51.0004         46.0004
   1804219.50947   1431023.38747  25011543.3884   25011550.8644   25011543.005
        47.0004         42.0004
   1082393.64247    889874.67247  25170030.1644   25170034.2774   25170031.780
        47.0004         42.0004
 20 11  5  0 14  0.0000000  0  8G06G05G19G02G09G29G25G12
 -15181972.66648 -11774411.92647  22075836.2354   22075842.3224   22075835.279
        51.0004         46.0004
 -20545334.56849 -15950360.46449  21040454.3034   21040456.0954   21040454.272
        59.0004         54.0004
   -973372.91047   -747635.49546  24428285.8214   24428288.5534   24428286.991
        43.0004         39.0004
 -21113456.22849 -16406982.95848  21101207.2464   21101207.7374   21101208.175
        56.0004         51.0004
 -10298863.79248  -7987917.58547  23004445.8814   23004449.9904   23004445.342
        49.0004         44.0004
  -5824110.23248  -4484169.63047  23848357.8284   23848360.1144   23848359.241
        51.0004         46.0004
   1864557.10947   1478039.62747  25023026.2174   25023031.0634   25023027.066
        47.0004         42.0004
   1171273.63847    959131.80447  25186943.4014   25186945.9524   25186942.886
        47.0004         42.0004
 20 11  5  0 14 30.0000000  0  8G06G05G19G02G09G29G25G12
 -15115047.87748 -11722262.76447  22088571.4264   22088577.0424   22088570.989
        51.0004         46.0004
 -20592907.83149 -15987430.53649  21031401.5634   21031403.3704   21031401.183
        59.0004         54.0004
   -852929.24547   -653783.35246  24451206.2294   24451207.2204   24451207.127
        43.0004         38.0004
 -21128330.35449 -16418573.20148  21098376.9084   21098377.5134   21098378.016
        56.0004         51.0004
 -10224213.16848  -7929748.28547  23018650.4314   23018655.5094   23018650.784
        49.0004         44.0004
  -5914598.62648  -4554680.06347  23831138.0714   23831140.4804   23831138.246
        51.0004         46.0004
   1925242.71447   1525327.05447  25034574.1284   25034580.8044   25034575.800
        47.0004         42.0004
   1260246.69247   1028461.38447  25203874.6054   25203877.6224   25203876.478
        47.0004         42.0004
 20 11  5  0 15  0.0000000  0  9G06G05G19G02G09G29G25G07G12
 -15047835.05248 -11669889.15747  22101362.3524   22101367.6374   22101361.692
        51.0004         46.0004
 -20640128.62349 -16024225.95649  21022415.8154   21022417.4944   21022415.957
        59.0004         54.0004
   -732406.26247   -559869.42246  24474140.6084   24474142.6324   24474141.572
        43.0004         38.0004
 -21142890.92749 -16429919.10748  21095606.2794   21095606.7574   21095606.724
        56.0004         51.0004
 -10149146.61548  -7871254.87747  23032935.0824   23032940.6604   23032934.472
        48.0004         43.0004
  -6004749.90548  -4624927.81447  23813982.5604   23813985.0484   23813983.189
        51.0004         46.0004
   1986273.48247   1572883.49947  25046187.5154   25046193.4074   25046187.951
        46.0004         42.0004
   -118502.93248    -69318.01446  25174899.8534   25174904.0624   25174898.764
        51.0004         37.0004
   1349309.67947   1097861.06846  25220822.4244   25220825.1744   25220822.902
        46.0004         41.0004
 20 11  5  0 15 30.0000000  0  9G06G05G19G02G09G29G25G07G12
 -14980334.56348 -11617291.38947  22114207.3274   22114212.6974   22114206.840
        51.0004         47.0004
 -20686996.67049 -16060746.51349  21013497.0254   21013498.7374   21013496.630
        59.0004         54.0004
   -611806.70747   -465895.78846  24497089.1534   24497092.8574   24497089.921
        43.0004         38.0004
 -21157136.95049 -16441019.92448  21092895.4114   21092895.8584   21092895.887
        56.0004         51.0004
 -10073666.59948  -7812439.30247  23047297.6774   23047303.8214   23047297.814
        48.0004         43.0004
  -6094561.54448  -4694910.92247  23796891.9754   23796894.4864   23796891.981
        51.0004         46.0004
   2047646.79847   1620706.80446  25057867.5054   25057871.8334   25057865.939
        46.0004         41.0004
   -177026.45247   -114920.76046  25163761.2724   25163767.1374   25163762.686
        46.0004         37.0004
   1438459.74047   1167328.60446  25237787.3654   25237788.6854   25237789.617
        46.0004         41.0004
 20 11  5  0 16  0.0000000  0  9G06G05G19G02G09G29G25G07G12
 -14912546.99448 -11564469.91747  22127106.5774   22127112.3864   22127106.663
        51.0004         47.0004
 -20733512.24449 -16096992.41249  21004645.3134   21004646.8984   21004645.355
        59.0004         54.0004
   -491132.76347   -371864.20946  24520052.8414   24520056.5634   24520054.487
        44.0004         39.0004
 -21171067.51549 -16451874.92048  21090244.4014   21090245.0934   21090244.877
        56.0004         51.0004
  -9997775.70748  -7753303.57247  23061740.2224   23061745.0374   23061739.729
        48.0004         44.0004
  -6184030.74748  -4764627.16847  23779866.5464   23779868.9704   23779866.994
        51.0004         46.0004
   2109359.53247   1668794.58946  25069609.5984   25069616.8264   25069607.911
        46.0004         41.0004
   -235287.43847   -160318.84646  25152676.3484   25152680.3914   25152675.621
        43.0004         37.0004
   1527693.20747   1236861.11046  25254765.9124   25254770.4764   25254767.962
        46.0004         41.0004
 20 11  5  0 16 30.0000000  0  8G06G05G19G02G09G29G25G07
 -14844472.60548 -11511424.95547  22140061.1144   22140065.9514   22140060.872
        51.0004         46.0004
 -20779674.39449 -16132962.92249  20995860.9164   20995862.7514   20995860.785
        59.0004         54.0004
   -370387.42947   -277777.00446  24543030.4824   24543033.5954   24543031.942
        44.0004         40.0004
 -21184680.85749 -16462482.73348  21087653.9164   21087654.2784   21087654.633
        56.0004         51.0004
  -9921476.24648  -7693849.47447  23076259.6614   23076264.3564   23076259.725
        48.0004         43.0004
  -6273154.59648  -4834074.32547  23762907.2394   23762909.6994   23762906.457
        51.0004         46.0004
   2171409.14357   1717144.89156  25081417.0715   25081422.8455   25081416.938
        46.0004         41.0004
   -293283.12047   -205510.25446  25141641.8154   25141643.7764   25141640.845
        42.0004         37.0004
 20 11  5  0 17  0.0000000  0  8G06G05G19G02G09G29G25G07
 -14776112.02648 -11458156.98547  22153069.5134   22153074.6684   22153068.818
        51.0004         46.0004
 -20825483.48049 -16168658.31249  20987143.5014   20987145.7064   20987143.291
        59.0004         54.0004
   -249573.39147   -183636.25546  24566020.2824   24566021.9844   24566021.631
        44.0004         40.0004
 -21197976.49349 -16472842.98448  21085123.7194   21085124.3084   21085124.173
        56.0004         51.0004
  -9844770.90648  -7634079.09647  23090856.6514   23090861.5804   23090856.569
        48.0004         44.0004
  -6361930.74348  -4903250.54547  23746014.1554   23746016.1404   23746015.479
        51.0004         46.0004
   2233792.57247   1765755.32347  25093288.7024   25093294.8584   25093288.779
        46.0004         42.0004
   -351011.58646   -250493.46446  25130656.2854   25130656.8744   25130656.324
        41.0004         37.0004
 20 11  5  0 17 30.0000000  0  8G06G05G19G02G09G29G25G07
 -14707465.50848 -11404666.20847  22166133.1974   22166138.0304   22166133.316
        51.0004         47.0004
 -20870939.15149 -16204078.30749  20978493.7344   20978495.8874   20978493.632
        59.0004         54.0004
   -128692.61147    -89443.48546  24589023.1484   24589025.6754   24589024.373
        44.0004         39.0004
 -21210952.86849 -16482954.46048  21082654.3284   21082655.1544   21082655.048
        56.0004         51.0004
  -9767661.99848  -7573994.24447  23105529.4814   23105534.1174   23105529.702
        48.0004         43.0004
  -6450355.95348  -4972153.29147  23729187.8244   23729189.1704   23729188.472
        51.0004         47.0004
   2296507.06847   1814623.70847  25105223.6154   25105230.4004   25105224.772
        47.0004         43.0004
   -408469.47546   -295265.82046  25119721.2994   25119725.5354   25119722.605
        41.0004         36.0004
 20 11  5  0 18  0.0000000  0  8G06G05G19G02G09G29G25G07
 -14638533.67848 -11350953.10047  22179250.2474   22179255.3934   22179249.953
        51.0004         47.0004
 -20916041.23949 -16239222.78749  20969911.1964   20969913.3504   20969910.878
        59.0004         54.0004
     -7747.99847      4799.01946  24612038.4834   24612041.0704   24612039.317
        44.0004         39.0004
 -21223609.02149 -16492816.40848  21080246.0684   21080246.7864   21080246.324
        56.0004         51.0004
  -9690152.09748  -7513596.94247  23120278.6954   23120284.3314   23120278.612
        48.0004         43.0004
  -6538427.73848  -5040780.64547  23712428.0544   23712430.1294   23712428.645
        52.0004         47.0004
   2359549.74147   1863747.81447  25117219.9214   25117226.6104   25117220.899
        47.0004         43.0004
   -465654.67646   -339825.69546  25108838.6934   25108842.2844   25108839.526
        41.0004         36.0004
 20 11  5  0 18 30.0000000  0  8G06G05G19G02G09G29G25G07
 -14569316.95748 -11297018.00347  22192421.5974   22192427.5434   22192421.580
        51.0004         47.0004
 -20960789.94549 -16274091.90549  20961395.8324   20961397.8884   20961395.574
        59.0004         54.0004
    113257.95247     99089.29546  24635064.3264   24635067.2144   24635064.262
        43.0004         38.0004
 -21235943.76649 -16502427.91248  21077898.8164   21077899.3894   21077899.487
        56.0004         51.0004
  -9612243.73448  -7452889.16047  23135104.2574   23135110.0534   23135103.577
        48.0004         43.0004
  -6626143.57848  -5109130.63047  23695736.6224   23695737.9904   23695736.431
        52.0004         47.0004
   2422917.71147   1913125.42047  25129279.0974   25129284.9754   25129280.908
        47.0004         42.0004
   -522564.82246   -384171.22046  25098008.3374   25098014.2404   25098008.415
        41.0004         37.0004
 20 11  5  0 19  0.0000000  0  8G06G05G19G02G09G29G25G07
 -14499815.75548 -11242861.22447  22205647.3244   22205653.0294   22205646.961
        51.0004         46.0004
 -21005184.63649 -16308685.16549  20952947.5964   20952949.7504   20952947.295
        59.0004         54.0004
    234322.60347    193425.31246  24658104.2454   24658105.4454   24658104.437
        43.0004         38.0004
 -21247955.97849 -16511788.09348  21075613.0044   21075613.8844   21075614.146
        56.0004         52.0004
  -9533939.37448  -7391872.80347  23150005.2684   23150010.5524   23150007.154
        48.0004         43.0004
  -6713500.06348  -5177200.61547  23679112.3374   23679114.5964   23679112.220
        51.0004         47.0004
   2486608.19247   1962754.30147  25141398.9984   25141404.6914   25141400.553
        47.0004         42.0004
   -579197.32446   -428300.43746  25087231.1984   25087234.3004   25087234.628
        41.0004         36.0004
 20 11  5  0 19 30.0000000  0  9G06G05G19G02G09G29G25G07G12
 -14430030.58748 -11188483.18747  22218926.9454   22218932.2354   22218926.415
        51.0004         46.0004
 -21049225.31749 -16343002.57949  20944567.2674   20944568.9934   20944566.819
        59.0004         54.0004
    355443.56147    287805.25046  24681151.3584   24681152.5474   24681153.967
        43.0004         38.0004
 -21259644.29749 -16520895.88648  21073388.8164   21073389.6624   21073389.208
        56.0004         52.0004
  -9455241.59448  -7330549.87047  23164982.3494   23164986.0574   23164981.721
        48.0004         43.0004
  -6800494.81248  -5244988.71847  23662557.4854   23662559.7674   23662557.256
        51.0004         47.0004
   2550618.27547   2012632.25146  25153579.9794   25153586.7524   25153579.329
        46.0004         41.0004
   -635549.80646   -472211.43846  25076508.1644   25076512.5674   25076508.220
        41.0004         36.0004
                                                                  25374029.866

 20 11  5  0 20  0.0000000  0  9G06G05G19G02G09G29G25G07G12
 -14359961.96048 -11133884.26747  22232260.5574   22232265.1554   22232259.621
        51.0004         46.0004
 -21092911.80049 -16377043.99249  20936253.5594   20936255.7234   20936253.423
        59.0004         54.0004
    476618.57947    382227.32046  24704210.2544   24704213.3454   24704210.682
        43.0004         38.0004
 -21271007.80449 -16529750.57748  21071226.5344   21071227.0574   21071227.522
        56.0004         52.0004
  -9376152.85548  -7268922.30347  23180032.2444   23180036.4614   23180032.031
        48.0004         43.0004
  -6887124.96148  -5312492.71247  23646072.5734   23646074.8104   23646072.379
        51.0004         47.0004
   2614944.93647   2062756.87846  25165819.9204   25165827.1184   25165819.528
        46.0004         41.0004
   -691619.56346   -515902.18646  25065840.2964   25065842.8004   25065842.058
        41.0004         36.0004
    106629.77849     66348.64447  25391113.3914   25391114.2384   25391114.009
        54.0004         43.0004
 20 11  5  0 20 30.0000000  0  9G06G05G19G02G09G29G25G07G12
 -14289610.29248 -11079064.80447  22245648.2424   22245652.6784   22245647.046
        51.0004         46.0004
 -21136244.04549 -16410809.37949  20928007.8474   20928009.7114   20928007.881
        59.0004         54.0004
    597844.88747    476689.33046  24727279.0844   24727283.9394   24727279.665
        43.0004         38.0004
 -21282045.42449 -16538351.33148  21069126.2684   21069126.9144   21069127.297
        56.0004         52.0004
  -9296675.65848  -7206992.05247  23195156.2394   23195160.9984   23195156.309
        48.0004         43.0004
  -6973387.81248  -5379710.51147  23629656.9434   23629659.5314   23629657.086
        51.0004         47.0004
   2679585.47847   2113126.08447  25178121.0044   25178127.2014   25178120.473
        46.0004         42.0004
   -747404.00346   -559370.57746  25055222.6954   25055228.4184   25055221.964
        41.0004         36.0004
    196473.28548    136356.63247  25408209.0704   25408213.3054   25408210.106
        50.0004         43.0004
 20 11  5  0 21  0.0000000  0  9G06G05G19G02G09G29G25G07G12
 -14218976.19448 -11024025.25047  22259088.9354   22259093.9394   22259088.541
        51.0004         46.0004
 -21179221.80349 -16444298.54149  20919829.6084   20919831.4704   20919829.327
        59.0004         54.0004
    719119.71847    571189.14146  24750357.2454   24750359.7934   24750359.031
        43.0004         38.0004
 -21292755.93849 -16546697.19848  21067087.9934   21067088.5534   21067088.431
        56.0004         52.0004
  -9216812.64348  -7144761.14347  23210353.2184   23210357.3844   23210353.511
        48.0004         43.0004
  -7059281.21248  -5446640.41347  23613311.6934   23613314.4244   23613311.290
        52.0004         47.0004
   2744536.79647   2163737.45446  25190479.5774   25190485.4274   25190481.165
        46.0004         41.0004
   -802901.05146   -602615.03146  25044664.1894   25044667.7184   25044664.155
        41.0004         37.0004
    286368.56248    206404.84847  25425315.1124   25425318.1134   25425316.251
        48.0004         43.0004
 20 11  5  0 21 30.0000000  0  9G06G05G19G02G09G29G25G07G12
 -14148060.03848 -10968765.92947  22272583.6224   22272589.5854   22272583.273
        51.0004         46.0004
 -21221845.02149 -16477511.44149  20911718.4674   20911720.7504   20911718.470
        59.0004         54.0004
    840440.92847    665725.12946  24773442.4314   24773446.5794   24773444.329
        43.0004         38.0004
 -21303138.21049 -16554787.28448  21065112.4694   21065112.9784   21065113.099
        56.0004         52.0004
  -9136566.23048  -7082231.50047  23225624.2434   23225629.1104   23225624.360
        48.0004         43.0004
  -7144802.04348  -5513280.02147  23597039.0364   23597040.4174   23597040.250
        52.0004         47.0004
   2809796.15547   2214588.86546  25202899.5624   25202906.9224   25202898.019
        46.0004         41.0004
   -858107.99947   -645633.41246  25034158.0654   25034160.3294   25034156.513
        42.0004         37.0004
    376313.04148    276491.41747  25442431.3634   25442435.8674   25442432.229
        48.0004         43.0004
 20 11  5  0 22  0.0000000  0  9G06G05G19G02G09G29G25G07G12
 -14076862.46348 -10913287.29847  22286132.2764   22286137.4924   22286132.007
        51.0004         46.0004
 -21264113.77349 -16510448.13549  20903675.1734   20903677.4124   20903674.673
        59.0004         55.0004
    961805.72847    760295.05946  24796537.2644   24796541.5124   24796539.042
        43.0004         38.0004
 -21313191.30349 -16562620.87048  21063199.2694   21063199.8164   21063200.147
        56.0004         51.0004
  -9055939.07648  -7019405.16847  23240967.1474   23240969.9614   23240966.800
        48.0004         43.0004
  -7229946.97948  -5579626.70147  23580835.5254   23580838.0624   23580835.157
        52.0004         47.0004
   2875360.50647   2265677.96347  25215375.9964   25215383.2654   25215376.487
        46.0004         42.0004
   -913022.44747   -688423.91146  25023708.8184   25023711.5184   25023706.261
        42.0004         37.0004
    466303.47647    346613.81547  25459554.1474   25459558.2174   25459554.296
        47.0004         42.0004
 20 11  5  0 22 30.0000000  0  9G06G05G19G02G09G29G25G07G12
 -14005383.85448 -10857589.69247  22299734.1054   22299739.8524   22299733.688
        50.0004         46.0004
 -21306027.72649 -16543108.36049  20895699.3774   20895701.2164   20895699.364
        59.0004         55.0004
   1083211.73647    854897.09746  24819641.0824   24819643.8154   24819642.692
        43.0004         38.0004
 -21322914.01149 -16570197.01048  21061348.9394   21061349.6734   21061349.443
        56.0004         51.0004
  -8974933.61448  -6956284.04747  23256382.5804   23256385.9034   23256382.139
        48.0004         43.0004
  -7314713.53648  -5645678.55447  23564705.2324   23564707.0764   23564705.533
        52.0004         47.0004
   2941227.11147   2317002.49547  25227910.7474   25227916.1914   25227910.583
        46.0004         42.0004
   -967641.84746   -730984.48046  25013313.8404   25013319.3014   25013314.679
        41.0004         37.0004
    556336.63947    416769.50546  25476688.1484   25476692.5134   25476688.943
        46.0004         41.0004
 20 11  5  0 23  0.0000000  0  9G06G05G19G02G09G29G25G07G12
 -13933624.81948 -10801673.57547  22313389.5744   22313394.8124   22313388.944
        50.0004         46.0004
 -21347586.84349 -16575492.08849  20887790.6344   20887792.7684   20887790.844
        59.0004         54.0004
   1204656.66647    949529.46746  24842752.7304   24842753.2914   24842753.882
        43.0004         38.0004
 -21332305.00449 -16577514.66748  21059561.7384   21059562.3894   21059562.208
        56.0004         51.0004
  -8893552.48448  -6892870.18447  23271867.7354   23271871.3734   23271868.326
        48.0004         43.0004
  -7399099.47648  -5711433.81247  23548646.8314   23548648.9874   23548646.866
        52.0004         47.0004
   3007392.83047   2368560.17047  25240500.3564   25240506.9474   25240499.084
        46.0004         42.0004
  -1021963.69946   -773313.23946  25002975.8274   25002981.1844   25002976.605
        41.0004         37.0004
    646409.50547    486956.14546  25493829.2094   25493832.0954   25493828.498
        46.0004         41.0004
 20 11  5  0 23 30.0000000  0  9G06G05G19G02G09G29G25G07G12
 -13861585.86548 -10745539.33147  22327097.8804   22327104.0014   22327097.047
        50.0004         46.0004
 -21388790.72649 -16607599.01349  20879949.7444   20879951.8194   20879949.539
        59.0004         54.0004
   1326137.39447   1044189.74246  24865868.3184   24865871.7184   24865870.091
        43.0004         38.0004
 -21341363.22649 -16584573.02348  21057838.3154   21057838.8874   21057839.096
        56.0004         52.0004
  -8811798.20248  -6829165.55747  23287424.0404   23287429.0584   23287424.340
        48.0004         43.0004
  -7483101.86148  -5776890.21248  23532661.5614   23532663.9234   23532662.103
        52.0004         48.0004
   3073854.89247   2420348.74947  25253147.9084   25253155.9424   25253146.941
        46.0004         42.0004
  -1075985.83046   -815408.41546  24992697.0604   24992700.5364   24992698.482
        41.0004         37.0004
    736519.08347    557171.36846  25510976.1854   25510977.5304   25510976.803
        46.0004         41.0004
 20 11  5  0 24  0.0000000  0 10G06G05G19G02G09G29G25G07G12G13
 -13789267.52048 -10689187.38847  22340859.8204   22340865.0864   22340859.516
        50.0004         46.0004
 -21429639.59549 -16639429.30749  20872176.5574   20872178.4224   20872176.107
        59.0004         54.0004
   1447651.80147   1138876.24046  24888992.8704   24888994.5794   24888992.842
        43.0004         38.0004
 -21350087.71449 -16591371.33348  21056178.2944   21056178.7084   21056178.974
        56.0004         52.0004
  -8729673.30348  -6765172.15147  23303051.7104   23303057.1274   23303051.432
        48.0004         43.0004
  -7566718.17848  -5842045.77347  23516749.9264   23516752.4324   23516750.095
        52.0004         47.0004
   3140610.21147   2472365.84747  25265851.6094   25265858.0084   25265850.303
        46.0004         42.0004
  -1129705.86247   -857268.20846  24982475.8014   24982477.9314   24982473.051
        42.0004         37.0004
    826662.11747    627412.63546  25528129.0994   25528130.8214   25528129.822
        45.0004         40.0004
   -267118.91548   -146642.99346  23920088.5354   23920090.7014   23920086.934
        50.0004         36.0004
 20 11  5  0 24 30.0000000  0 11G06G30G05G19G02G09G29G25G07G12G13
 -13716670.35148 -10632618.17347  22354674.7004   22354679.8254   22354674.209
        50.0004         46.0004
                                                                  25225528.219

 -21470133.66649 -16670983.13549  20864471.0964   20864472.9264   20864471.011
        59.0004         55.0004
   1569197.45647   1233587.06646  24912121.2984   24912123.1614   24912121.707
        42.0004         38.0004
 -21358477.60849 -16597908.91748  21054581.4644   21054582.0394   21054582.338
        56.0004         52.0004
  -8647180.43148  -6700892.01147  23318750.1804   23318755.1214   23318750.689
        48.0004         43.0004
  -7649945.30148  -5906898.08847  23500912.4694   23500914.3734   23500911.887
        52.0004         47.0004
   3207655.90247   2524609.17647  25278610.3294   25278617.0354   25278610.557
        47.0004         42.0004
  -1183121.19147   -898890.56546  24972310.7944   24972312.2354   24972311.893
        42.0004         37.0004
    916835.28447    697677.46346  25545290.8654   25545291.2244   25545291.942
        45.0004         40.0004
   -383016.30347   -236952.66746  23898033.6734   23898035.4914   23898032.053
        45.0004         37.0004
 20 11  5  0 25  0.0000000  0 11G06G30G05G19G02G09G29G25G07G12G13
 -13643794.88448 -10575832.10747  22368543.1444   22368547.9764   22368541.898
        50.0004         46.0004
   -203250.89348   -117722.29346  25210493.6634   25210502.2064   25210492.920
        49.0004         37.0004
 -21510272.06249 -16702259.81449  20856833.0414   20856834.9184   20856833.136
        59.0004         55.0004
   1690771.77447   1328320.20446  24935257.5454   24935258.9634   24935258.037
        43.0004         38.0004
 -21366531.54749 -16604184.72148  21053048.8924   21053049.5704   21053049.533
        56.0004         52.0004
  -8564322.14447  -6636327.11247  23334517.6314   23334523.0034   23334516.560
        47.0004         43.0004
  -7732781.02548  -5971445.40548  23485149.1044   23485151.7654   23485148.605
        52.0004         48.0004
   3274989.02447   2577076.52047  25291423.3414   25291429.4354   25291424.727
        47.0004         42.0004
  -1236229.14947   -940273.40646  24962204.6504   24962208.5184   24962203.502
        42.0004         38.0004
   1007035.73347    767963.48746  25562454.4024   25562456.1694   25562455.024
        45.0004         40.0004
   -498792.96947   -327168.24746  23875999.9414   23876004.5624   23875999.919
        43.0004         37.0004
 20 11  5  0 25 30.0000000  0 11G06G30G05G19G02G09G29G25G07G12G13
 -13570641.68548 -10518829.63147  22382463.3584   22382467.4044   22382463.067
        50.0004         45.0004
   -282139.37047   -179193.69246  25195483.6504   25195490.2344   25195484.402
        44.0004         37.0004
 -21550055.31649 -16733259.75249  20849262.0394   20849264.1634   20849261.638
        59.0004         54.0004
   1812372.45047   1423073.92746  24958396.7674   24958399.6974   24958398.409
        43.0004         38.0004
 -21374248.42949 -16610197.88048  21051580.5244   21051581.1264   21051581.227
        56.0004         52.0004
  -8481100.96647  -6571479.45647  23350354.4284   23350359.0964   23350354.371
        47.0004         43.0004
  -7815222.10648  -6035685.18448  23469461.3904   23469464.7084   23469462.537
        52.0004         48.0004
   3342606.61347   2629765.53347  25304289.5104   25304295.5104   25304293.278
        47.0004         42.0004
  -1289027.49647   -981414.98246  24952157.3434   24952161.4684   24952156.664
        42.0004         38.0004
   1097260.72347    838268.62846  25579623.0294   25579625.9614   25579622.990
        45.0004         40.0004
   -614446.14447   -417287.58946  23853994.1794   23853996.4214   23853994.733
        42.0004         37.0004
 20 11  5  0 26  0.0000000  0 11G06G30G05G19G02G09G29G25G07G12G13
 -13497211.29048 -10461611.16747  22396436.9984   22396441.4324   22396436.274
        50.0004         45.0004
   -360926.75647   -240586.29646  25180489.8984   25180497.3604   25180491.493
        42.0004         37.0004
 -21589482.85649 -16763982.51349  20841759.1394   20841761.4634   20841758.711
        59.0004         55.0004
   1933996.45147   1517845.79046  24981540.7324   24981543.0224   24981541.856
        43.0004         38.0004
 -21381627.10749 -16615947.50448  21050176.3084   21050176.9664   21050177.101
        56.0004         52.0004
  -8397519.46547  -6506351.02247  23366259.1834   23366264.0774   23366260.094
        47.0004         43.0004
  -7897266.43848  -6099615.83548  23453848.9614   23453851.7084   23453849.009
        53.0004         48.0004
   3410505.73047   2682673.91646  25317210.8624   25317216.1964   25317212.290
        46.0004         41.0004
  -1341514.20247  -1022313.73046  24942169.8104   24942170.7934   24942168.682
        43.0004         38.0004
   1187506.88947    908590.29046  25596796.9114   25596799.8734   25596797.314
        45.0004         40.0004
   -729973.23747   -507308.69246  23832009.5534   23832013.8224   23832009.281
        42.0004         38.0004
 20 11  5  0 26 30.0000000  0 11G06G30G05G19G02G09G29G25G07G12G13
 -13423504.25348 -10404177.14747  22410462.2214   22410467.3644   22410461.743
        50.0004         45.0004
   -439610.19047   -301897.90646  25165518.2744   25165524.7084   25165517.730
        42.0004         37.0004
 -21628555.04849 -16794428.38049  20834324.2394   20834326.3644   20834324.251
        59.0004         55.0004
   2055641.92847   1612634.37846  25004688.7764   25004691.9194   25004690.018
        43.0004         38.0004
 -21388666.56749 -16621432.80648  21048836.6384   21048837.2514   21048837.422
        56.0004         52.0004
  -8313580.26947  -6440943.85347  23382232.5484   23382237.4204   23382231.925
        47.0004         43.0004
  -7978910.71848  -6163234.74148  23438312.9944   23438314.9614   23438312.541
        53.0004         48.0004
   3478683.39247   2735799.33546  25330185.0094   25330190.3684   25330186.572
        46.0004         41.0004
  -1393686.46947  -1062967.43546  24932240.4784   24932243.7094   24932240.133
        43.0004         38.0004
   1277771.34047    978926.22546  25613973.9714   25613978.6184   25613973.906
        44.0004         39.0004
   -845371.62647   -597229.52246  23810050.5274   23810051.8984   23810051.682
        42.0004         38.0004
 20 11  5  0 27  0.0000000  0 11G06G30G05G19G02G09G29G25G07G12G13
 -13349521.23148 -10346528.05647  22424541.1304   22424546.7924   22424540.560
        50.0004         45.0004
   -518186.81846   -363126.26646  25150565.9814   25150571.9214   25150563.511
        41.0004         36.0004
 -21667271.86049 -16824597.32849  20826956.6444   20826958.6974   20826956.370
        59.0004         55.0004
   2177306.01447   1707437.51346  25027841.1174   25027843.5144   25027841.693
        43.0004         38.0004
 -21395365.86149 -16626653.04048  21047561.9004   21047562.4614   21047562.597
        56.0004         52.0004
  -8229285.98847  -6375260.02047  23398272.9654   23398278.5374   23398272.939
        47.0004         43.0004
  -8060152.59848  -6226540.10548  23422852.7864   23422854.8784   23422853.017
        53.0004         48.0004
   3547136.65347   2789139.47046  25343210.3614   25343218.4264   25343210.068
        45.0004         41.0004
  -1445542.02647  -1103374.36946  24922372.6104   24922376.9194   24922371.879
        43.0004         38.0004
   1368050.89647   1049273.83546  25631152.6484   25631157.1714   25631152.566
        43.0004         38.0004
   -960638.47247   -687047.85246  23788115.0144   23788118.6004   23788114.555
        42.0004         38.0004
 20 11  5  0 27 30.0000000  0 11G06G30G05G19G02G09G29G25G07G12G13
 -13275262.70148 -10288664.28947  22438672.1934   22438676.4584   22438671.386
        50.0004         45.0004
   -596653.68146   -424269.12946  25135632.2864   25135639.9164   25135633.307
        41.0004         36.0004
 -21705633.00449 -16854489.13449  20819656.7344   20819658.7574   20819656.586
        59.0004         55.0004
   2298986.32247   1802253.27246  25050996.0254   25050997.8184   25050997.040
        43.0004         38.0004
 -21401723.81849 -16631607.30348  21046352.1404   21046352.7214   21046353.008
        56.0004         52.0004
  -8144639.14447  -6309301.46047  23414381.4394   23414385.6224   23414380.635
        47.0004         42.0004
  -8140989.74248  -6289530.07648  23407469.8244   23407472.5514   23407468.912
        53.0004         48.0004
   3615862.46347   2842692.00346  25356288.2354   25356296.1814   25356289.435
        46.0004         41.0004
  -1497078.70347  -1143532.79346  24912566.7204   24912569.5344   24912565.847
        44.0004         39.0004
   1458342.52147   1119630.91246  25648332.1954   25648336.9724   25648333.326
        43.0004         38.0004
  -1075771.13447   -776761.62546  23766205.4794   23766210.0694   23766208.158
        42.0004         38.0004
 20 11  5  0 28  0.0000000  0 10G06G30G05G19G02G09G29G25G07G13
