     2.11           OBSERVATION DATA    G (GPS)             RINEX VERSION / TYPE
teqc  2018Dec12     gpsops              20201108 00:20:10UTCPGM / RUN BY / DATE
Linux 2.6.32-573.12.1.x86_64|x86_64|gcc -static|Linux 64|=+ COMMENT
BIT 2 OF LLI FLAGS DATA COLLECTED UNDER A/S CONDITION       COMMENT
CHAN                                                        MARKER NAME
21611M002                                                   MARKER NUMBER
GGN                 Changchun Observatory,NAOC,CAS          OBSERVER / AGENCY
UC2200511014        ASHTECH UZ-12       CQ00                REC # / TYPE / VERS
CR6200503027        ASH701945E_M    NONE                    ANT # / TYPE
 -2674431.9143  3757145.2969  4391528.8732                  APPROX POSITION XYZ
        0.2500        0.0000        0.0000                  ANTENNA: DELTA H/E/N
     1     1                                                WAVELENGTH FACT L1/2
     7    L1    L2    P1    P2    C1    S1    S2            # / TYPES OF OBSERV
    30.0000                                                 INTERVAL
Forced Modulo Decimation to 30 seconds                      COMMENT
                                                            COMMENT
 SNR is mapped to RINEX snr flag value [0-9]                COMMENT
  L1 & L2: min(max(int(snr_dBHz/6), 0), 9)                  COMMENT
pseudorange smoothing corrections not applied               COMMENT
  2020    11     7     0     0    0.0000000     GPS         TIME OF FIRST OBS
                                                            END OF HEADER
 20 11  7  0  0  0.0000000  0  8G05G06G12G25G09G29G19G02
 -19301564.27049 -15020556.66249  21155346.5644   21155348.7564   21155346.467
        58.0004         54.0004
 -16092706.79748 -12497412.70947  21933130.5054   21933135.7364   21933129.578
        52.0004         47.0004
    347757.26347    319117.58346  24993017.4904   24993021.0854   24993014.682
        46.0004         41.0004
   2672789.97347   2096161.76647  24893153.7524   24893159.9014   24893154.351
        47.0004         42.0004
 -11737394.84548  -9109666.39847  22849109.2814   22849113.2954   22849108.245
        49.0004         44.0004
  -4631024.96648  -3552594.85547  24058684.8114   24058687.7534   24058685.427
        50.0004         45.0004
  -3115007.83547  -2416934.73847  24168045.8514   24168049.1934   24168046.309
        46.0004         42.0004
 -21009332.93949 -16331370.91448  21137508.2724   21137508.7424   21137508.771
        56.0004         51.0004
 20 11  7  0  0 30.0000000  0  8G05G06G12G25G09G29G19G02
 -19353356.78349 -15060914.47449  21145490.9594   21145492.8644   21145490.393
        58.0004         54.0004
 -16029143.36648 -12447882.78747  21945226.3994   21945232.0084   21945225.311
        52.0004         47.0004
    435485.91547    387477.55347  25009712.0404   25009716.5254   25009710.343
        46.0004         42.0004
   2729210.47847   2140125.73547  24903889.3564   24903896.2884   24903889.668
        47.0004         42.0004
 -11667671.42848  -9055336.47847  22862377.2614   22862382.0834   22862377.824
        49.0004         44.0004
  -4725288.19648  -3626046.71647  24040747.6674   24040750.1374   24040748.894
        50.0004         46.0004
  -2995645.67547  -2323925.32647  24190759.3564   24190762.6044   24190760.490
        46.0004         42.0004
 -21027575.33649 -16345585.77648  21134036.8444   21134037.3804   21134037.620
        56.0004         51.0004
 20 11  7  0  1  0.0000000  0  8G05G06G12G25G09G29G19G02
 -19404799.61949 -15100999.80949  21135701.9024   21135703.8194   21135701.983
        58.0004         54.0004
 -15965287.51948 -12398125.00447  21957377.0084   21957383.1514   21957376.606
        52.0004         47.0004
    523341.14447    455936.15947  25026430.5134   25026432.7524   25026429.850
        46.0004         42.0004
   2786008.58047   2184383.96847  24914697.5894   24914705.4234   24914698.572
        47.0004         42.0004
 -11597504.42948  -9000660.91647  22875728.9004   22875734.0564   22875728.642
        49.0004         44.0004
  -4819247.18148  -3699261.49747  24022868.3754   24022870.2374   24022869.040
        50.0004         46.0004
  -2876175.18347  -2230831.48646  24213494.1054   24213496.9224   24213495.587
        46.0004         41.0004
 -21045517.55849 -16359566.73948  21130622.7634   21130623.2124   21130623.327
        56.0004         51.0004
 20 11  7  0  1 30.0000000  0  8G05G06G12G25G09G29G19G02
 -19455892.46649 -15140812.42649  21125978.9784   21125981.0894   21125979.121
        58.0004         54.0004
 -15901139.59848 -12348139.63347  21969584.5334   21969589.6854   21969584.307
        52.0004         47.0004
    611319.69147    524490.86147  25043173.6884   25043174.0144   25043172.891
        46.0004         42.0004
   2843181.57447   2228934.33647  24925577.6874   24925585.4734   24925579.103
        47.0004         43.0004
 -11526896.21048  -8945641.54447  22889165.6574   22889170.8454   22889165.882
        49.0004         44.0004
  -4912899.52948  -3772237.33547  24005046.5404   24005047.6964   24005047.124
        50.0004         45.0004
  -2756599.02247  -2137655.32046  24236248.6354   24236252.4944   24236250.003
        46.0004         41.0004
 -21063158.30949 -16373312.78248  21127265.7864   21127266.1904   21127266.483
        56.0004         51.0004
 20 11  7  0  2  0.0000000  0  8G05G06G12G25G09G29G19G02
 -19506635.59149 -15180352.52749  21116322.7274   21116325.0154   21116322.468
        58.0004         54.0004
 -15836700.02448 -12297927.01647  21981846.5984   21981852.0364   21981846.123
        52.0004         47.0004
    699418.14447    593139.00147  25059937.0264   25059940.0044   25059937.633
        46.0004         42.0004
   2900726.76047   2273774.69747  24936528.4054   24936535.8444   24936527.350
        47.0004         43.0004
 -11455849.19748  -8890280.26847  22902684.7524   22902690.1184   22902684.974
        49.0004         44.0004
  -5006242.29848  -3844971.94947  23987283.4184   23987285.4834   23987282.192
        50.0004         45.0004
  -2636919.41447  -2044398.55946  24259024.4504   24259026.2484   24259025.987
        46.0004         41.0004
 -21080496.63849 -16386823.17548  21123966.5504   21123966.9364   21123966.825
        56.0004         51.0004
 20 11  7  0  2 30.0000000  0  8G05G06G12G25G09G29G19G02
 -19557028.91749 -15219620.05349  21106733.1774   21106735.8194   21106732.984
        58.0004         54.0004
 -15771969.07748 -12247487.34347  21994164.7084   21994169.5154   21994164.047
        51.0004         47.0004
    787633.65447    661878.34547  25076724.2534   25076726.6904   25076726.045
        46.0004         42.0004
   2958641.41248   2318902.96447  24947550.4504   24947555.7654   24947551.577
        48.0004         43.0004
 -11384365.71348  -8834578.87547  22916288.2734   22916294.0084   22916288.466
        49.0004         44.0004
  -5099272.45848  -3917462.96747  23969580.3354   23969582.2144   23969580.971
        50.0004         45.0004
  -2517139.20847  -1951063.39546  24281816.1914   24281819.6804   24281817.607
        45.0004         40.0004
 -21097531.39949 -16400097.02448  21120724.9154   21120725.1824   21120725.590
        56.0004         51.0004
 20 11  7  0  3  0.0000000  0  8G05G06G12G25G09G29G19G02
 -19607071.60049 -15258614.34449  21097210.6674   21097212.9724   21097210.430
        58.0004         54.0004
 -15706947.21348 -12196820.97847  22006538.5234   22006543.7234   22006537.870
        51.0004         47.0004
    875963.00447    730706.39547  25093533.3524   25093535.9694   25093532.834
        46.0004         42.0004
   3016922.76047   2364316.96547  24958640.0734   24958645.7294   24958639.760
        47.0004         42.0004
 -11312448.22248  -8778539.30647  22929973.5704   22929979.3904   22929973.781
        49.0004         44.0004
  -5191987.35748  -3989708.32947  23951937.4054   23951940.1034   23951936.063
        50.0004         45.0004
  -2397260.93947  -1857651.79846  24304628.7144   24304632.1914   24304629.480
        45.0004         40.0004
 -21114261.30949 -16413133.33048  21117541.3144   21117541.6754   21117542.104
        56.0004         51.0004
 20 11  7  0  3 30.0000000  0  8G05G06G12G25G09G29G19G02
 -19656763.77549 -15297335.51449  21087754.5504   21087756.5774   21087754.428
        59.0004         54.0004
 -15641634.79848 -12145928.20847  22018966.6764   22018972.1874   22018966.246
        51.0004         47.0004
    964402.98647    799620.63746  25110361.4274   25110366.0724   25110362.265
        46.0004         41.0004
   3075568.01557   2410014.50757  24969799.0965   24969806.5575   24969799.509
        47.0004         43.0004
 -11240099.09048  -8722163.39947  22943741.7514   22943745.8904   22943741.133
        49.0004         44.0004
  -5284384.69948  -4061706.27147  23934355.0184   23934357.0664   23934355.022
        50.0004         46.0004
  -2277286.92647  -1764165.60446  24327459.2474   24327462.4764   24327461.308
        44.0004         39.0004
 -21130685.21849 -16425931.18848  21114415.7024   21114416.3254   21114416.547
        56.0004         51.0004
 20 11  7  0  4  0.0000000  0  8G05G06G12G25G09G29G19G02
 -19706104.79149 -15335783.04849  21078365.1004   21078367.2044   21078364.925
        59.0004         54.0004
 -15576032.16448 -12094809.30347  22031450.4114   22031456.3214   22031449.622
        52.0004         47.0004
   1052950.23047    868618.44247  25127211.4614   25127216.5024   25127214.403
        46.0004         42.0004
   3134574.57748   2455993.62847  24981028.8014   24981035.4164   24981028.085
        48.0004         43.0004
 -11167320.72148  -8665453.01147  22957591.0934   22957596.0014   22957591.210
        49.0004         44.0004
  -5376461.18048  -4133454.17747  23916833.6884   23916836.0364   23916833.850
        50.0004         46.0004
  -2157220.25047  -1670607.21746  24350308.0284   24350309.6514   24350307.841
        43.0004         38.0004
 -21146802.43049 -16438490.06648  21111348.7614   21111349.5014   21111349.584
        56.0004         51.0004
 20 11  7  0  4 30.0000000  0  8G05G06G12G25G09G29G19G02
 -19755094.89949 -15373957.14749  21069042.5164   21069044.7814   21069042.221
        59.0004         54.0004
 -15510139.73848 -12043464.57247  22043989.6254   22043994.7904   22043988.843
        52.0004         47.0004
   1141601.79747    937697.56546  25144081.6854   25144085.7244   25144080.450
        46.0004         41.0004
   3193939.57347   2502252.00947  24992325.9694   24992331.6354   24992328.289
        47.0004         42.0004
 -11094115.54448  -8608410.04947  22971521.7194   22971526.0344   22971520.919
        49.0004         44.0004
  -5468214.08248  -4204949.94247  23899373.4134   23899376.0104   23899374.623
        50.0004         46.0004
  -2037063.03647  -1576978.27346  24373172.5224   24373175.2184   24373173.523
        42.0004         37.0004
 -21162611.11449 -16450808.52748  21108340.3094   21108341.1404   21108340.825
        56.0004         51.0004
 20 11  7  0  5  0.0000000  0  8G05G06G12G25G09G29G19G02
 -19803733.54549 -15411857.38049  21059787.0294   21059789.0664   21059786.885
        59.0004         54.0004
 -15443957.93048 -11991894.36147  22056583.4934   22056589.0144   22056582.871
        51.0004         47.0004
   1230354.52747   1006855.50047  25160973.3784   25160976.7074   25160974.846
        47.0004         42.0004
   3253660.27847   2548787.58647  25003690.7204   25003696.8414   25003691.623
        47.0004         42.0004
 -11020485.99348  -8551036.42347  22985532.8844   22985537.6844   22985533.106
        49.0004         44.0004
  -5559640.28848  -4276191.14247  23881976.3414   23881978.2204   23881976.012
        51.0004         46.0004
  -1916817.29547  -1483280.37646  24396055.4324   24396057.4274   24396057.180
        42.0004         38.0004
 -21178110.22649 -16462885.76648  21105390.9474   21105391.7464   21105391.614
        56.0004         51.0004
 20 11  7  0  5 30.0000000  0  8G05G06G12G25G09G29G19G02
 -19852020.70749 -15449483.73349  21050598.3884   21050600.3814   21050598.243
        59.0004         54.0004
 -15377487.15648 -11940098.98147  22069232.6444   22069237.7904   22069231.656
        51.0004         47.0004
   1319204.61347   1076089.32847  25177878.6734   25177882.3224   25177878.958
        47.0004         42.0004
   3313733.77547   2595598.07647  25015120.8304   25015127.7914   25015120.581
        47.0004         42.0004
 -10946434.55048  -8493334.03747  22999624.6684   22999629.2444   22999625.322
        49.0004         44.0004
  -5650737.64248  -4347176.07847  23864640.6464   23864643.4824   23864639.975
        51.0004         46.0004
  -1796486.47947  -1389516.16546  24418953.4534   24418956.6274   24418952.872
        43.0004         39.0004
 -21193298.88549 -16474721.10148  21102500.8214   21102501.5104   21102501.594
        56.0004         51.0004
 20 11  7  0  6  0.0000000  0  8G05G06G12G25G09G29G19G02
 -19899956.40249 -15486836.21149  21041476.3774   21041478.5784   21041476.120
        59.0004         54.0004
 -15310727.76648 -11888078.70247  22081935.8454   22081941.5114   22081934.731
        51.0004         46.0004
   1408149.24847   1145396.81747  25194806.0354   25194809.0424   25194806.251
        47.0004         43.0004
   3374157.45847   2642681.39047  25026619.7804   25026625.2344   25026620.807
        47.0004         42.0004
 -10871963.59148  -8435304.75647  23013796.7914   23013800.9884   23013796.122
        48.0004         44.0004
  -5741503.12148  -4417902.40547  23847367.9704   23847370.2344   23847369.971
        51.0004         46.0004
  -1676073.08247  -1295687.60246  24441866.7854   24441870.0524   24441869.345
        43.0004         39.0004
 -21208175.94549 -16486313.62848  21099669.8254   21099670.4404   21099670.572
        56.0004         51.0004
 20 11  7  0  6 30.0000000  0  8G05G06G12G25G09G29G19G02
 -19947539.91249 -15523914.25749  21032421.6044   21032423.7464   21032421.217
        59.0004         54.0004
 -15243680.17248 -11835833.84647  22094694.6234   22094700.4024   22094693.714
        51.0004         46.0004
   1497185.74147   1214775.87347  25211748.8114   25211751.0454   25211749.771
        47.0004         42.0004
   3434928.48947   2690035.40247  25038183.9714   25038189.7404   25038185.878
        47.0004         42.0004
 -10797075.57448  -8376950.49347  23028046.4854   23028051.2644   23028045.558
        48.0004         44.0004
  -5831933.99648  -4488368.00847  23830159.5604   23830161.6954   23830159.507
        51.0004         46.0004
  -1555579.40047  -1201796.47646  24464796.5544   24464798.9424   24464798.005
        43.0004         38.0004
 -21222740.02749 -16497662.27448  21096898.2284   21096899.0274   21096899.264
        56.0004         51.0004
 20 11  7  0  7  0.0000000  0  8G05G06G12G25G09G29G19G02
 -19994771.04749 -15560717.72649  21023433.9924   21023435.9514   21023434.087
        59.0004         54.0004
 -15176344.83848 -11783364.76947  22107507.9184   22107513.8714   22107507.549
        51.0004         46.0004
   1586310.40147   1284223.62646  25228708.6604   25228710.9874   25228712.911
        46.0004         41.0004
   3496043.96947   2737657.86146  25049813.1594   25049818.7484   25049814.312
        46.0004         41.0004
 -10721772.98548  -8318273.18347  23042375.7604   23042380.0794   23042374.974
        48.0004         43.0004
  -5922027.43748  -4558570.68947  23813014.9144   23813017.3344   23813015.824
        51.0004         46.0004
  -1435008.18447  -1107844.93046  24487739.7744   24487741.7974   24487741.338
        43.0004         38.0004
 -21236990.16049 -16508766.29048  21094186.6334   21094187.3584   21094187.319
        56.0004         51.0004
 20 11  7  0  7 30.0000000  0  8G05G06G12G25G09G29G19G02
 -20041649.73749 -15597246.56949  21014513.2664   21014515.0764   21014513.255
        59.0004         54.0004
 -15108722.21048 -11730671.83247  22120376.7884   22120382.4194   22120376.257
        51.0004         47.0004
   1675520.03147   1353737.56846  25245685.3534   25245687.0234   25245685.802
        46.0004         41.0004
   3557501.16247   2785546.52146  25061508.3744   25061513.5634   25061507.953
        46.0004         41.0004
 -10646058.32748  -8259274.79547  23056783.1694   23056788.8374   23056782.130
        48.0004         43.0004
  -6011780.87848  -4628508.44647  23795935.2184   23795937.9464   23795934.610
        51.0004         46.0004
  -1314361.66947  -1013834.72946  24510697.4014   24510701.6764   24510700.166
        43.0004         39.0004
 -21250924.90249 -16519624.53048  21091535.0914   21091535.3804   21091535.346
        56.0004         51.0004
 20 11  7  0  8  0.0000000  0  8G05G06G12G25G09G29G19G02
 -20088175.98049 -15633500.77249  21005659.4834   21005661.1904   21005659.429
        59.0004         54.0004
 -15040812.65348 -11677755.31547  22133299.2414   22133304.7424   22133298.872
        51.0004         46.0004
   1764811.40657   1423315.24356  25262674.3525   25262678.2785   25262675.085
        45.0004         40.0004
   3619297.23447   2833699.24747  25073268.5924   25073274.5454   25073266.971
        46.0004         42.0004
 -10569933.96048  -8199957.14147  23071269.8374   23071274.9694   23071270.117
        48.0004         43.0004
  -6101191.35348  -4698178.92947  23778920.8054   23778923.3304   23778921.088
        51.0004         46.0004
  -1193642.51247   -919767.91546  24533670.8854   24533673.4934   24533672.537
        44.0004         40.0004
 -21264543.15149 -16530236.15948  21088943.5584   21088943.9954   21088944.079
        56.0004         51.0004
 20 11  7  0  8 30.0000000  0  7G05G06G25G09G29G19G02
 -20134349.22349 -15669479.91949  20996873.1024   20996874.9154   20996872.815
        59.0004         54.0004
 -14972616.64648 -11624615.58747  22146276.7394   22146282.3944   22146276.329
        51.0004         47.0004
   3681429.33447   2882113.84546  25085091.0014   25085096.9964   25085090.867
        46.0004         41.0004
 -10493402.44048  -8140322.21747  23085833.5244   23085838.5904   23085833.305
        48.0004         43.0004
  -6190255.84648  -4767579.83647  23761972.7464   23761975.5504   23761972.100
        51.0004         46.0004
  -1072853.24247   -825646.47746  24556657.1104   24556658.4064   24556657.931
        44.0004         40.0004
 -21277843.99649 -16540600.46148  21086412.5174   21086413.0344   21086412.663
        56.0004         51.0004
 20 11  7  0  9  0.0000000  0  7G05G06G25G09G29G19G02
 -20180170.00349 -15705184.42349  20988153.5174   20988155.6044   20988153.501
        59.0004         54.0004
 -14904134.80348 -11571253.13347  22159308.1684   22159313.8624   22159307.479
        51.0004         47.0004
   3743894.47347   2930787.94047  25096979.4594   25096984.9344   25096979.197
        46.0004         42.0004
 -10416466.36048  -8080372.04347  23100474.2444   23100478.4244   23100474.697
        48.0004         43.0004
  -6278972.12248  -4836709.40947  23745091.0154   23745093.5804   23745093.244
        51.0004         46.0004
   -951996.63147   -731472.54446  24579654.9674   24579657.4124   24579655.980
        44.0004         40.0004
 -21290826.40749 -16550716.63648  21083941.8414   21083942.6664   21083942.445
        56.0004         51.0004
 20 11  7  0  9 30.0000000  0  7G05G06G25G09G29G19G02
 -20225637.25849 -15740613.44449  20979501.4504   20979503.5434   20979501.363
        59.0004         54.0004
 -14835367.32648 -11517668.10647  22172394.9294   22172399.9434   22172394.959
        51.0004         47.0004
   3806689.96947   2979719.44047  25108928.4684   25108935.5234   25108928.845
        47.0004         42.0004
 -10339128.09848  -8020108.48547  23115191.2094   23115196.3284   23115191.109
        48.0004         43.0004
  -6367337.46848  -4905565.51547  23728276.3354   23728278.3064   23728276.843
        51.0004         47.0004
   -831075.02447   -637247.98046  24602664.4694   24602667.9384   24602665.490
        44.0004         39.0004
 -21303488.84349 -16560583.47548  21081532.2064   21081532.8954   21081532.863
        56.0004         51.0004
 20 11  7  0 10  0.0000000  0  7G05G06G25G09G29G19G02
 -20270751.19949 -15775767.15649  20970916.6294   20970918.8164   20970916.321
        59.0004         54.0004
 -14766314.70548 -11463860.88447  22185535.3864   22185540.2934   22185535.191
        51.0004         46.0004
   3869812.95947   3028906.13547  25120940.3174   25120946.7834   25120940.884
        47.0004         42.0004
 -10261390.10848  -7959533.45147  23129983.3944   23129989.2704   23129983.386
        48.0004         43.0004
  -6455348.61048  -4974145.62547  23711528.4214   23711530.5654   23711528.208
        51.0004         47.0004
   -710090.73947   -542974.58446  24625687.3584   24625690.4874   24625685.651
        43.0004         38.0004
 -21315830.18549 -16570200.11648  21079183.8454   21079184.4104   21079184.678
        56.0004         51.0004
 20 11  7  0 10 30.0000000  0  7G05G06G25G09G29G19G02
 -20315511.70449 -15810645.48049  20962399.0524   20962401.1604   20962399.043
        59.0004         54.0004
 -14696977.51248 -11409831.91147  22198729.3974   22198734.5114   22198728.830
        51.0004         46.0004
   3933260.51347   3078345.75447  25133013.4794   25133020.5244   25133014.816
        47.0004         42.0004
 -10183254.95148  -7898648.94047  23144852.2834   23144857.2144   23144853.657
        48.0004         43.0004
  -6543003.09348  -5042447.80647  23694848.4764   23694850.0694   23694848.574
        51.0004         47.0004
   -589046.74447   -448654.69746  24648721.3884   24648725.6354   24648721.273
        43.0004         38.0004
 -21327849.69449 -16579565.98148  21076896.7974   21076897.3824   21076897.359
        56.0004         51.0004
 20 11  7  0 11  0.0000000  0  7G05G06G25G09G29G19G02
 -20359918.74049 -15845248.37449  20953948.6524   20953950.7984   20953948.506
        59.0004         54.0004
 -14627356.19348 -11355581.55547  22211977.6954   22211983.3664   22211976.464
        51.0004         46.0004
   3997029.83747   3128036.07547  25145149.3164   25145154.8034   25145150.896
        47.0004         42.0004
 -10104725.23548  -7837456.95847  23159796.9474   23159801.1514   23159797.706
        48.0004         43.0004
  -6630298.26248  -5110470.01847  23678236.1514   23678238.6664   23678235.957
        51.0004         47.0004
   -467945.19047   -354289.91146  24671766.5214   24671769.7784   24671767.773
        43.0004         38.0004
 -21339545.82349 -16588679.85948  21074670.9924   21074671.8874   21074671.361
        56.0004         51.0004
 20 11  7  0 11 30.0000000  0  8G05G06G12G25G09G29G19G02
 -20403972.00349 -15879575.60249  20945565.5604   20945567.5234   20945565.540
        59.0004         54.0004
 -14557451.19348 -11301110.14947  22225280.4234   22225285.4494   22225279.387
        51.0004         46.0004
                                                                  25382001.567

   4061118.06147   3177974.91346  25157345.0314   25157351.0434   25157344.921
        46.0004         41.0004
 -10025803.37348  -7775959.41247  23174814.5984   23174819.5734   23174815.035
        48.0004         43.0004
  -6717231.30848  -5178210.05447  23661692.5544   23661695.3844   23661693.066
        51.0004         46.0004
   -346788.74047   -259882.34446  24694821.5324   24694824.2874   24694821.736
        43.0004         38.0004
 -21350917.58049 -16597540.97948  21072506.9554   21072507.6434   21072508.100
        56.0004         51.0004
 20 11  7  0 12  0.0000000  0  8G05G06G12G25G09G29G19G02
 -20447671.37549 -15913627.06649  20937249.6024   20937251.7414   20937249.512
        59.0004         54.0004
 -14487263.06148 -11246418.12547  22238636.4234   22238642.4034   22238635.812
        51.0004         46.0004
                                                                  25399099.776

   4125522.10547   3228159.83446  25169600.0824   25169607.1264   25169598.952
        46.0004         41.0004
  -9946491.96248  -7714158.34147  23189907.5524   23189912.3984   23189908.263
        48.0004         43.0004
  -6803799.16548  -5245665.53047  23645219.7154   23645222.3414   23645219.369
        51.0004         47.0004
   -225580.27047   -165434.23746  24717887.5084   24717891.2064   24717886.930
        43.0004         38.0004
 -21361964.01549 -16606148.59748  21070404.9834   21070405.6174   21070406.082
        56.0004         52.0004
 20 11  7  0 12 30.0000000  0  8G05G06G12G25G09G29G19G02
 -20491016.42149 -15947402.43749  20929001.4524   20929003.4084   20929001.268
        59.0004         54.0004
 -14416792.16148 -11191505.76047  22252046.4994   22252051.6844   22252046.583
        51.0004         46.0004
    199098.86448    119861.02947  25416202.6784   25416206.3374   25416203.480
        51.0004         43.0004
   4190239.25147   3278588.73247  25181916.0484   25181921.7214   25181914.897
        46.0004         42.0004
  -9866793.42748  -7652055.59147  23205073.1934   23205078.4374   23205073.881
        48.0004         43.0004
  -6889999.43748  -5312834.57647  23628815.9014   23628818.8354   23628816.365
        51.0004         47.0004
   -104321.89547    -70947.26846  24740961.2884   24740965.3624   24740962.913
        42.0004         38.0004
 -21372683.84849 -16614501.71748  21068365.1204   21068365.7204   21068365.696
        56.0004         51.0004
 20 11  7  0 13  0.0000000  0  8G05G06G12G25G09G29G19G02
 -20534007.22749 -15980901.77049  20920820.6854   20920822.8504   20920820.317
        59.0004         54.0004
 -14346039.14548 -11136373.56447  22265510.1924   22265516.8444   22265509.376
        51.0004         46.0004
    289036.05848    189941.86947  25433317.1494   25433321.4454   25433318.151
        49.0004         43.0004
   4255266.45447   3329259.24746  25194289.7154   25194294.8774   25194289.237
        46.0004         41.0004
  -9786710.37148  -7589653.22247  23220313.3814   23220318.3404   23220313.476
        48.0004         43.0004
  -6975829.31448  -5379714.98847  23612482.8894   23612485.8324   23612482.800
        51.0004         47.0004
     16983.94947     23576.68846  24764046.2584   24764048.5044   24764047.170
        43.0004         38.0004
 -21383075.88649 -16622599.41648  21066387.5194   21066388.1354   21066388.351
        56.0004         51.0004
 20 11  7  0 13 30.0000000  0  8G05G06G12G25G09G29G19G02
 -20576643.77649 -16014125.06349  20912706.9824   20912709.4854   20912706.978
        59.0004         54.0004
 -14275004.43248 -11081021.86247  22279028.4084   22279034.1874   22279027.426
        51.0004         46.0004
    379020.58047    260059.61347  25450440.1554   25450444.8094   25450439.770
        47.0004         42.0004
   4320600.95347   3380169.22846  25206722.8134   25206729.7224   25206721.361
        46.0004         41.0004
  -9706245.33148  -7526953.20147  23235625.5754   23235629.7684   23235625.156
        48.0004         43.0004
  -7061285.91748  -5446304.56247  23596222.3964   23596223.6534   23596223.585
        52.0004         47.0004
    138334.37947    118135.39846  24787137.2244   24787141.1224   24787138.839
        43.0004         38.0004
 -21393139.36949 -16630441.09948  21064472.5754   21064473.3144   21064473.447
        56.0004         51.0004
 20 11  7  0 14  0.0000000  0  8G05G06G12G25G09G29G19G02
 -20618926.06149 -16047072.31049  20904661.0864   20904663.4114   20904660.697
        59.0004         55.0004
 -14203688.53748 -11025451.05347  22292598.5084   22292605.2454   22292598.721
        51.0004         46.0004
    469049.67047    330212.08846  25467572.7554   25467576.1794   25467572.041
        46.0004         41.0004
   4386239.73047   3431316.32046  25219213.3144   25219220.5114   25219214.191
        46.0004         41.0004
  -9625400.89648  -7463957.54647  23251009.8704   23251013.6414   23251010.674
        48.0004         43.0004
  -7146366.63448  -5512601.20347  23580031.0534   23580034.0664   23580030.868
        52.0004         47.0004
    259727.24347    212727.15546  24810237.6664   24810240.6694   24810239.088
        43.0004         38.0004
 -21402872.90549 -16638025.68048  21062620.1194   21062621.1624   21062620.642
        56.0004         51.0004
 20 11  7  0 14 30.0000000  0  8G05G06G12G25G09G29G19G02
 -20660853.52449 -16079743.07149  20896682.7284   20896684.7764   20896682.708
        59.0004         55.0004
 -14132091.94148 -10969661.52247  22306223.3744   22306229.0514   22306223.343
        50.0004         46.0004
    559119.77347    400396.54646  25484711.6174   25484716.5874   25484709.756
        46.0004         41.0004
   4452179.94147   3482698.20847  25231761.7054   25231768.4214   25231761.495
        46.0004         42.0004
  -9544179.51248  -7400668.16547  23266465.3444   23266468.9484   23266465.846
        48.0004         43.0004
  -7231068.68248  -5578602.79847  23563913.3164   23563915.1974   23563914.112
        52.0004         47.0004
    381159.83747    307349.87746  24833345.6934   24833349.6414   24833347.745
        43.0004         38.0004
 -21412275.21349 -16645352.15748  21060830.7444   21060831.7584   21060831.142
        56.0004         51.0004
 20 11  7  0 15  0.0000000  0  9G05G06G12G25G09G29G19G13G02
 -20702426.58549 -16112137.66949  20888771.4294   20888773.6664   20888771.050
        59.0004         54.0004
 -14060215.32048 -10913653.79447  22319901.0134   22319906.6304   22319900.535
        50.0004         46.0004
    649227.82347    470610.55646  25501860.3974   25501862.1904   25501860.439
        46.0004         41.0004
   4518418.52447   3534312.64646  25244366.2214   25244372.6854   25244365.007
        46.0004         41.0004
  -9462583.89748  -7337087.17747  23281992.2504   23281995.9734   23281992.485
        48.0004         43.0004
  -7315389.65348  -5644307.44147  23547867.2944   23547869.7974   23547866.753
        52.0004         47.0004
    502629.43747    402001.44746  24856461.6214   24856463.5684   24856461.126
        43.0004         38.0004
   -322412.11847   -191322.92746  23956553.3324   23956556.9154   23956553.162
        47.0004         36.0004
 -21421345.47049 -16652419.90048  21059105.2734   21059105.6134   21059105.837
        56.0004         51.0004
 20 11  7  0 15 30.0000000  0  9G05G06G12G25G09G29G19G13G02
 -20743644.97249 -16144255.89149  20880927.8444   20880930.0264   20880927.324
        59.0004         54.0004
 -13988059.04048 -10857428.14747  22333631.4844   22333637.8024   22333630.724
        50.0004         46.0004
    739370.94947    540851.85346  25519013.4514   25519016.2354   25519013.323
        45.0004         40.0004
   4584952.64347   3586157.35247  25257028.3434   25257035.0684   25257026.485
        46.0004         42.0004
  -9380616.49147  -7273216.48347  23297589.9094   23297594.7144   23297589.027
        47.0004         43.0004
  -7399326.59148  -5709712.84547  23531894.7454   23531897.4054   23531894.169
        52.0004         47.0004
    624133.86347    496680.15646  24879582.1474   24879584.9304   24879583.273
        42.0004         38.0004
   -438512.83047   -281790.93546  23934460.3264   23934463.9454   23934458.657
        43.0004         36.0004
 -21430082.44749 -16659227.94548  21057442.6904   21057443.0944   21057443.450
        56.0004         52.0004
 20 11  7  0 16  0.0000000  0 10G05G06G12G25G09G29G19G07G13G02
 -20784508.17649 -16176097.35849  20873151.9754   20873153.9664   20873151.735
        59.0004         54.0004
 -13915623.66748 -10800985.01847  22347415.3964   22347421.2144   22347415.140
        50.0004         45.0004
    829545.95947    611118.06746  25536174.0944   25536174.9394   25536174.156
        45.0004         40.0004
   4651779.37147   3638230.06646  25269744.6814   25269751.0164   25269742.371
        46.0004         41.0004
  -9298279.82047  -7209058.07047  23313257.6014   23313263.2584   23313258.032
        47.0004         43.0004
  -7482876.70648  -5774816.81247  23515995.6834   23515998.0904   23515995.507
        52.0004         47.0004
    745670.20647    591383.71346  24902710.6614   24902714.8194   24902710.544
        43.0004         38.0004
                                                                  24979355.404

   -554497.49847   -372168.57446  23912389.1904   23912392.7144   23912389.076
        42.0004         36.0004
 -21438484.99449 -16665775.38248  21055843.4024   21055844.1014   21055844.367
        56.0004         51.0004
 20 11  7  0 16 30.0000000  0 10G05G06G12G25G09G29G19G07G13G02
 -20825016.28549 -16207662.11949  20865443.7294   20865445.6104   20865443.896
        59.0004         55.0004
 -13842909.81948 -10744324.89747  22361253.1784   22361258.5214   22361252.110
        50.0004         46.0004
    919749.96047    681406.86446  25553338.9484   25553340.1044   25553340.151
        45.0004         40.0004
   4718895.68347   3690528.42247  25282516.8724   25282522.5524   25282518.488
        47.0004         42.0004
  -9215576.57747  -7144614.00147  23328995.6244   23329000.8284   23328995.392
        47.0004         43.0004
  -7566037.59848  -5839617.50747  23500170.5964   23500172.4534   23500170.624
        52.0004         47.0004
    867236.65147    686110.69846  24925843.8304   24925846.1354   24925845.040
        43.0004         38.0004
   -141972.85848    -87896.84846  24969222.7164   24969225.0734   24969221.306
        48.0004         37.0004
   -670363.15746   -462453.48046  23890341.3554   23890344.6024   23890339.498
        41.0004         37.0004
 -21446552.10549 -16672061.45148  21054308.3514   21054309.1224   21054308.785
        56.0004         52.0004
 20 11  7  0 17  0.0000000  0 10G05G06G12G25G09G29G19G07G13G02
 -20865169.26949 -16238950.14949  20857802.7004   20857804.8464   20857802.717
        59.0004         55.0004
 -13769917.95748 -10687448.14247  22375143.0674   22375148.1364   22375142.850
        50.0004         45.0004
   1009979.67747    751715.66746  25570508.7464   25570511.2124   25570506.567
        45.0004         40.0004
   4786298.69147   3743050.22147  25295342.8464   25295348.9704   25295343.811
        47.0004         42.0004
  -9132509.23947  -7079886.22847  23344802.8114   23344807.6034   23344802.121
        47.0004         42.0004
  -7648806.28448  -5904112.57748  23484419.9034   23484422.6804   23484419.423
        52.0004         48.0004
    988830.31947    780858.91046  24948982.6414   24948984.8234   24948983.882
        43.0004         38.0004
   -194913.46647   -129149.25246  24959147.8634   24959150.7884   24959148.755
        44.0004         37.0004
   -786107.28746   -552643.66146  23868315.5154   23868317.3604   23868314.256
        41.0004         37.0004
 -21454282.62749 -16678085.25148  21052837.6634   21052837.9994   21052838.165
        56.0004         52.0004
 20 11  7  0 17 30.0000000  0 10G05G06G12G25G09G29G19G07G13G02
 -20904967.30549 -16269961.60149  20850229.0224   20850231.4804   20850228.707
        59.0004         54.0004
 -13696648.77248 -10630355.29947  22389085.7754   22389090.9374   22389085.082
        50.0004         45.0004
   1100231.95547    822042.09346  25587684.4424   25587685.7754   25587684.948
        45.0004         40.0004
   4853985.34547   3795793.04346  25308222.5594   25308228.8514   25308224.966
        46.0004         41.0004
  -9049080.47647  -7014876.82047  23360679.3554   23360684.5534   23360679.830
        47.0004         43.0004
  -7731180.16948  -5968299.99048  23468745.0104   23468748.4874   23468745.542
        52.0004         48.0004
   1110448.63747    875626.35246  24972126.3954   24972129.7084   24972126.619
        43.0004         39.0004
   -247543.60847   -170159.73646  24949132.1724   24949134.4184   24949132.719
        43.0004         38.0004
   -901727.16847   -642737.02546  23846313.8784   23846316.7784   23846313.592
        42.0004         37.0004
 -21461675.78649 -16683846.16948  21051430.6084   21051431.2244   21051431.628
        56.0004         52.0004
 20 11  7  0 18  0.0000000  0 10G05G06G12G25G09G29G19G07G13G02
 -20944410.35849 -16300696.45049  20842723.2734   20842725.7594   20842722.933
        59.0004         54.0004
 -13623102.64348 -10573046.64947  22403081.6264   22403085.5724   22403081.057
        50.0004         45.0004
   1190503.60147    892383.63146  25604861.0104   25604865.3984   25604861.202
        44.0004         39.0004
   4921952.84847   3848754.70246  25321156.3404   25321162.1604   25321157.733
        46.0004         41.0004
  -8965292.77547  -6949587.71147  23376623.6644   23376628.8294   23376622.945
        47.0004         43.0004
  -7813156.26048  -6032177.46748  23453145.4014   23453148.3424   23453145.583
        53.0004         48.0004
   1232089.28447    970411.19546  24995272.8724   24995275.7394   24995273.687
        43.0004         38.0004
   -299860.83147   -210926.37246  24939175.9604   24939180.1204   24939174.937
        43.0004         38.0004
  -1017219.98247   -732731.37146  23824335.7724   23824338.8574   23824335.358
        42.0004         37.0004
 -21468730.12449 -16689343.06948  21050087.9654   21050088.9014   21050088.801
        56.0004         52.0004
 20 11  7  0 18 30.0000000  0 10G05G06G12G25G09G29G19G07G13G02
 -20983497.99049 -16331154.33849  20835285.3134   20835287.4754   20835285.312
        59.0004         54.0004
 -13549280.29548 -10515522.76247  22417128.9044   22417133.8604   22417128.241
        50.0004         45.0004
   1280792.14847    962738.28746  25622041.1214   25622046.1834   25622043.490
        43.0004         38.0004
   4990198.07847   3901932.74546  25334142.8224   25334149.3604   25334144.783
        45.0004         40.0004
  -8881148.79147  -6884020.99147  23392635.6274   23392641.3264   23392635.860
        47.0004         43.0004
  -7894732.44748  -6095743.32048  23437622.4884   23437624.4154   23437622.168
        53.0004         48.0004
   1353749.70947   1065211.44446  25018423.6734   25018427.1744   25018425.308
        43.0004         38.0004
   -351862.69547   -251447.32246  24929279.7854   24929283.4594   24929279.921
        43.0004         38.0004
  -1132583.19247   -822624.74446  23802382.7434   23802385.1514   23802385.443
        42.0004         38.0004
 -21475444.87549 -16694575.36048  21048810.1614   21048810.9114   21048811.351
        56.0004         52.0004
 20 11  7  0 19  0.0000000  0 11G30G05G06G12G25G09G29G19G07G13G02
                                                                  25143175.586

 -21022230.40649 -16361335.43949  20827915.0294   20827916.8784   20827914.980
        59.0004         55.0004
 -13475182.21848 -10457784.01747  22431229.2204   22431234.8524   22431228.515
        50.0004         45.0004
   1371094.33357   1033103.57556  25639225.4725   25639229.8445   25639225.153
        43.0004         38.0004
   5058718.17357   3955324.91856  25347181.5355   25347189.6015   25347183.048
        45.0004         41.0004
  -8796651.04447  -6818178.62947  23408715.2924   23408719.7614   23408715.409
        47.0004         43.0004
  -7975905.53048  -6158995.07548  23422175.4744   23422177.5864   23422175.843
        53.0004         48.0004
   1475427.19547   1160025.01046  25041577.9354   25041581.1114   25041579.991
        43.0004         38.0004
   -403546.66147   -291720.53846  24919445.8974   24919448.8854   24919446.233
        43.0004         39.0004
  -1247813.89247   -912414.83946  23780454.6464   23780459.0764   23780454.120
        42.0004         38.0004
 -21481818.84449 -16699542.10148  21047597.4034   21047598.0404   21047598.448
        56.0004         52.0004
 20 11  7  0 19 30.0000000  0 11G30G05G06G12G25G09G29G19G07G13G02
                                                                  25128264.890

 -21060607.54849 -16391239.70049  20820611.8034   20820613.8294   20820611.673
        59.0004         54.0004
 -13400809.04248 -10399830.91047  22445382.3454   22445387.7904   22445381.844
        50.0004         45.0004
   1461406.88057   1103477.01056  25656410.4545   25656414.4325   25656412.284
        42.0004         37.0004
   5127510.00647   4008928.90146  25360271.6524   25360279.7644   25360273.010
        46.0004         41.0004
  -8711802.17447  -6752062.66647  23424861.4854   23424865.5854   23424859.838
        47.0004         42.0004
  -8056673.30848  -6221930.99848  23406805.2964   23406808.6094   23406804.202
        53.0004         48.0004
   1597119.52147   1254850.12046  25064735.9314   25064738.7374   25064738.125
        43.0004         38.0004
   -454910.85147   -331744.56846  24909671.2074   24909674.4114   24909672.479
        44.0004         39.0004
  -1362909.61347  -1002099.76946  23758552.4714   23758555.8864   23758554.869
        42.0004         38.0004
 -21487850.91849 -16704242.43048  21046449.6954   21046450.1504   21046450.383
        56.0004         52.0004
 20 11  7  0 20  0.0000000  0 10G30G05G06G25G09G29G19G07G13G02
   -199836.90148   -115406.53945  25113373.8534   25113383.0914   25113376.799
        49.0004         35.0004
 -21098628.93349 -16420866.74549  20813376.6844   20813378.5914   20813375.882
        59.0004         55.0004
 -13326161.31348 -10341663.86147  22459587.1084   22459592.4454   22459585.482
        50.0004         45.0004
   5196570.74447   4062742.43846  25373414.7474   25373420.9484   25373416.310
        46.0004         41.0004
  -8626604.74047  -6685675.09947  23441074.2294   23441078.2074   23441074.622
        47.0004         42.0004
  -8137032.66248  -6284548.66548  23391513.6574   23391516.1054   23391513.062
        53.0004         48.0004
   1718824.09547   1349684.76846  25087895.4694   25087898.4224   25087897.736
        42.0004         37.0004
   -505952.53947   -371517.31646  24899959.4994   24899961.7114   24899959.166
        44.0004         39.0004
  -1477867.40947  -1091677.23246  23736678.1534   23736680.0994   23736677.449
        43.0004         38.0004
 -21493539.92849 -16708675.43848  21045366.9234   21045367.6774   21045367.629
        56.0004         52.0004
 20 11  7  0 20 30.0000000  0 10G30G05G06G25G09G29G19G07G13G02
   -277963.66547   -176284.50345  25098508.3344   25098513.4964   25098509.584
        44.0004         35.0004
 -21136294.67049 -16450216.66549  20806209.1974   20806211.2524   20806209.187
        59.0004         55.0004
 -13251239.66848 -10283283.37247  22473843.5774   22473850.2864   22473843.597
        50.0004         45.0004
   5265897.28747   4116763.07246  25386608.3014   25386613.6054   25386608.840
        46.0004         41.0004
  -8541061.39947  -6619017.98847  23457353.0494   23457356.5354   23457353.268
        47.0004         42.0004
  -8216981.05548  -6346846.11948  23376300.2254   23376302.2894   23376301.357
        53.0004         48.0004
   1840538.33646   1444526.96446  25111056.5154   25111060.3674   25111058.595
        41.0004         36.0004
   -556669.57747   -411037.10346  24890308.3354   24890310.9884   24890307.702
        44.0004         39.0004
  -1592684.88047  -1181145.33546  23714827.6134   23714831.2554   23714828.930
        43.0004         38.0004
 -21498884.91249 -16712840.37548  21044349.9024   21044350.6004   21044350.155
        56.0004         52.0004
 20 11  7  0 21  0.0000000  0 10G30G05G06G25G09G29G19G07G13G02
   -355970.08946   -237068.66845  25083663.3824   25083670.2044   25083664.302
        41.0004         35.0004
 -21173605.44649 -16479289.98349  20799108.9714   20799111.3014   20799108.758
        59.0004         55.0004
 -13176044.71348 -10224689.92147  22488153.6074   22488159.2454   22488152.619
        50.0004         45.0004
   5335486.58747   4170988.49946  25399849.9214   25399855.6324   25399850.960
        45.0004         40.0004
  -8455174.70247  -6552093.33347  23473695.2164   23473700.9054   23473695.618
        47.0004         42.0004
  -8296516.02648  -6408821.42548  23361165.2634   23361167.3724   23361165.382
        53.0004         48.0004
   1962260.04946   1539374.97546  25134220.8794   25134223.7504   25134220.963
        41.0004         36.0004
   -607059.44847   -450301.93946  24880718.8794   24880721.9614   24880718.311
        44.0004         39.0004
  -1707358.79347  -1270501.61046  23693006.9234   23693010.8594   23693006.575
        43.0004         39.0004
 -21503884.63349 -16716736.27548  21043398.4804   21043399.1674   21043399.131
        56.0004         52.0004
 20 11  7  0 21 30.0000000  0 10G30G05G06G25G09G29G19G07G13G02
   -433853.32146   -297756.88246  25068843.7784   25068852.7514   25068843.062
        41.0004         36.0004
 -21210560.35549 -16508086.00449  20792076.6694   20792079.1254   20792076.647
        59.0004         55.0004
 -13100577.00548 -10165883.94947  22502515.0544   22502520.4754   22502514.345
        50.0004         45.0004
   5405335.92947   4225416.47246  25413141.1734   25413147.9634   25413141.399
        45.0004         41.0004
  -8368947.22847  -6484903.14447  23490103.6844   23490109.2234   23490103.473
        47.0004         42.0004
  -8375635.54848  -6470472.99248  23346109.3184   23346111.5214   23346108.819
        53.0004         48.0004
   2083987.15646   1634227.20546  25157384.6454   25157387.1684   25157384.993
        40.0004         36.0004
   -657119.90247   -489310.06646  24871192.5754   24871194.2574   24871192.597
        44.0004         39.0004
  -1821886.70247  -1359744.06246  23671212.1394   23671215.6144   23671212.891
        44.0004         39.0004
 -21508538.36349 -16720362.57848  21042512.9104   21042513.6754   21042513.692
        56.0004         51.0004
 20 11  7  0 22  0.0000000  0 10G30G05G06G25G09G29G19G07G13G02
   -511610.46246   -358346.78746  25054046.6964   25054054.6534   25054046.505
        41.0004         36.0004
 -21247159.41949 -16536604.74449  20785111.8774   20785114.6204   20785112.142
        59.0004         55.0004
 -13024837.25348 -10106865.98347  22516927.7624   22516932.8124   22516927.488
        50.0004         45.0004
   5475442.00247   4280044.53546  25426482.5984   25426488.8084   25426482.906
        46.0004         41.0004
  -8282381.61247  -6417449.47447  23506577.0364   23506582.5014   23506576.971
        47.0004         42.0004
  -8454335.87548  -6531797.90848  23331132.8494   23331135.4754   23331132.766
        53.0004         48.0004
   2205716.47046   1729081.16645  25180550.5304   25180552.0194   25180550.568
        40.0004         35.0004
   -706848.79147   -528059.82246  24861729.3264   24861730.6684   24861730.563
        44.0004         39.0004
  -1936265.85347  -1448870.63846  23649446.8684   23649449.4604   23649446.064
        44.0004         39.0004
 -21512844.95949 -16723718.38748  21041693.4364   21041694.2094   21041694.021
        56.0004         52.0004
 20 11  7  0 22 30.0000000  0 10G30G05G06G25G09G29G19G07G13G02
   -589238.50546   -418836.09846  25039274.9184   25039279.4604   25039275.076
        41.0004         36.0004
 -21283402.53249 -16564846.12349  20778215.4714   20778217.6774   20778215.375
        59.0004         55.0004
 -12948825.95348 -10047636.42047  22531391.7404   22531397.7014   22531391.409
        50.0004         45.0004
   5545801.99557   4334870.48356  25439870.3395   25439877.4105   25439869.988
        45.0004         41.0004
  -8195480.40747  -6349734.30847  23523114.3664   23523119.8844   23523114.127
        47.0004         42.0004
  -8532614.58748  -6592794.29748  23316236.9704   23316239.6764   23316237.639
        53.0004         48.0004
   2327445.55446   1823934.93145  25203711.9824   25203716.9834   25203714.229
        40.0004         35.0004
   -756243.63147   -566549.28346  24852329.1404   24852332.4554   24852330.195
        44.0004         39.0004
  -2050493.48047  -1537879.14546  23627710.3214   23627712.9254   23627711.234
        44.0004         39.0004
 -21516803.21649 -16726802.75848  21040940.1524   21040941.0544   21040940.886
        56.0004         52.0004
 20 11  7  0 23  0.0000000  0 10G30G05G06G25G09G29G19G07G13G02
   -666734.66546   -479222.64946  25024529.3974   25024533.9714   25024527.420
        41.0004         36.0004
 -21319290.39349 -16592810.67249  20771386.2294   20771388.4564   20771386.346
        59.0004         55.0004
 -12872543.86348  -9988195.85447  22545908.0384   22545913.4724   22545907.260
        50.0004         45.0004
   5616412.83047   4389891.89946  25453307.2844   25453314.5554   25453309.392
        45.0004         41.0004
  -8108246.32447  -6281759.73447  23539714.0354   23539719.1834   23539714.121
        47.0004         42.0004
  -8610469.43848  -6653460.41348  23301421.7524   23301424.4484   23301421.834
        53.0004         48.0004
   2449172.10346   1918786.68845  25226876.7924   25226879.8704   25226877.561
        40.0004         35.0004
   -805302.22747   -604776.72646  24842994.1994   24842997.7644   24842995.197
        44.0004         39.0004
  -2164566.92547  -1626767.50546  23606002.4384   23606004.2244   23606002.747
        44.0004         39.0004
 -21520412.23349 -16729614.99548  21040253.5964   21040254.3894   21040254.474
        56.0004         52.0004
 20 11  7  0 23 30.0000000  0 10G30G05G06G25G09G29G19G07G13G02
   -744095.96046   -539504.07746  25009806.3224   25009812.6504   25009805.993
        41.0004         37.0004
 -21354822.60049 -16620498.09049  20764624.6534   20764626.7234   20764624.489
        59.0004         55.0004
 -12795991.50948  -9928544.69347  22560475.2724   22560479.9584   22560474.876
        50.0004         45.0004
   5687271.50647   4445106.39646  25466791.9204   25466798.7494   25466792.476
        46.0004         41.0004
  -8020681.84247  -6213527.71947  23556377.4374   23556382.8934   23556377.579
        47.0004         42.0004
  -8687897.79748  -6713794.19248  23286687.9814   23286690.1354   23286688.313
        53.0004         49.0004
   2570893.81946   2013634.72645  25250040.2544   25250043.9494   25250041.487
        40.0004         35.0004
   -854022.21647   -642740.30746  24833722.9854   24833726.1454   24833722.420
        44.0004         39.0004
  -2278483.41947  -1715533.58746  23584324.6414   23584328.4194   23584324.608
        44.0004         39.0004
 -21523670.87849 -16732154.20648  21039633.2304   21039634.0674   21039633.737
        56.0004         51.0004
 20 11  7  0 24  0.0000000  0 10G30G05G06G25G09G29G19G07G13G02
   -821319.57246   -599678.17846  24995111.2744   24995117.8554   24995113.398
        41.0004         36.0004
 -21389998.95949 -16647908.23049  20757930.7154   20757932.6384   20757930.516
        59.0004         55.0004
 -12719169.61848  -9868683.49947  22575094.2434   22575099.1814   22575093.061
        50.0004         45.0004
   5758374.92147   4500511.64146  25480323.1284   25480330.4474   25480323.691
        45.0004         41.0004
  -7932789.67547  -6145040.35747  23573103.0994   23573107.8474   23573102.363
        47.0004         42.0004
  -8764896.85448  -6773793.45848  23272035.0054   23272037.9344   23272034.750
        53.0004         49.0004
   2692608.16456   2108476.99955  25273200.1095   25273204.0955   25273202.566
        39.0004         35.0004
   -902401.44647   -680438.35846  24824516.2524   24824520.8304   24824516.162
        44.0004         39.0004
  -2392240.29147  -1804175.28446  23562678.0014   23562680.3324   23562677.972
        44.0004         40.0004
 -21526578.33149 -16734419.76348  21039080.0474   21039080.8194   21039080.737
        56.0004         52.0004
 20 11  7  0 24 30.0000000  0  9G05G06G25G09G29G19G07G13G02
 -21424819.71249 -16675041.27649  20751304.6444   20751306.5734   20751304.525
        59.0004         55.0004
 -12642078.81348  -9808612.77547  22589764.2394   22589769.5674   22589763.729
        50.0004         45.0004
   5829720.12257   4556105.29156  25493898.8665   25493906.1655   25493900.029
        45.0004         41.0004
  -7844572.41647  -6076299.66747  23589889.4854   23589895.2464   23589889.866
        47.0004         42.0004
  -8841463.90848  -6833456.09948  23257464.5404   23257467.4904   23257464.159
        53.0004         48.0004
   2814312.65546   2203311.61945  25296359.9514   25296362.5904   25296362.776
        39.0004         34.0004
   -950437.49747   -717869.00546  24815376.7214   24815378.9924   24815376.138
        44.0004         39.0004
  -2505834.62947  -1892690.35346  23541061.1294   23541063.7624   23541062.324
        44.0004         40.0004
 -21529133.54549 -16736410.84748  21038593.9554   21038594.8294   21038594.312
        56.0004         52.0004
 20 11  7  0 25  0.0000000  0 10G30G05G06G25G09G29G19G07G13G02
   -975341.80846   -719695.22446  24965801.8094   24965808.4284   24965798.887
        41.0004         37.0004
 -21459284.79349 -16701897.17849  20744746.0174   20744748.0974   20744745.702
        59.0004         55.0004
 -12564719.72048  -9748332.98447  22604484.6234   22604491.5234   22604484.465
        50.0004         45.0004
   5901304.11747   4611884.97646  25507520.9994   25507528.8684   25507520.962
        45.0004         40.0004
  -7756032.57447  -6007307.61947  23606738.3234   23606742.9864   23606738.220
        46.0004         42.0004
  -8917596.68948  -6892780.33848  23242977.2304   23242979.6904   23242977.129
        53.0004         49.0004
   2936004.90956   2298136.73355  25319520.4345   25319523.6965   25319519.665
        39.0004         34.0004
   -998128.30847   -755030.63346  24806300.9544   24806303.4254   24806300.875
        44.0004         39.0004
  -2619264.03447  -1981076.87746  23519476.2104   23519480.0244   23519475.917
        45.0004         40.0004
 -21531335.42849 -16738126.60848  21038174.9324   21038175.5864   21038175.611
        56.0004         52.0004
 20 11  7  0 25 30.0000000  0  9G30G05G06G25G09G29G07G13G02
  -1052134.67347   -779533.72246  24951188.3484   24951194.6464   24951189.437
        42.0004         38.0004
 -21493394.13449 -16728475.88049  20738255.1274   20738257.4574   20738255.354
        59.0004         55.0004
 -12487093.06048  -9687844.69747  22619257.1004   22619262.6934   22619256.651
        50.0004         45.0004
   5973123.82657   4667848.29356  25521186.3865   25521195.0495   25521186.414
        45.0004         40.0004
  -7667172.90147  -5938066.35747  23623648.4104   23623652.7654   23623648.121
        46.0004         42.0004
  -8993292.57848  -6951764.13748  23228572.4454   23228575.0664   23228571.985
        53.0004         48.0004
  -1045471.81047   -791921.64546  24797290.7074   24797295.4884   24797290.228
        44.0004         40.0004
  -2732525.80647  -2069332.78146  23497923.4284   23497926.5774   23497924.151
        45.0004         40.0004
 -21533183.17349 -16739566.41548  21037823.2374   21037824.1354   21037824.085
        56.0004         52.0004
 20 11  7  0 26  0.0000000  0  8G30G05G06G09G29G07G13G02
  -1128778.19647   -839255.81646  24936601.9584   24936610.1014   24936602.918
        43.0004         38.0004
 -21527147.86849 -16754777.49049  20731832.3204   20731834.4884   20731831.932
        59.0004         55.0004
 -12409199.44748  -9627148.41447  22634080.3214   22634085.0344   22634079.808
        50.0004         45.0004
  -7577995.97047  -5868577.85247  23640618.1914   23640623.2344   23640616.277
        46.0004         42.0004
  -9068548.68548  -7010405.26248  23214252.2144   23214254.5504   23214252.775
        53.0004         49.0004
  -1092465.64247   -828540.20946  24788349.1894   24788351.0684   24788348.488
        44.0004         39.0004
  -2845616.91347  -2157455.72046  23476402.7374   23476406.0254   23476403.265
        45.0004         40.0004
 -21534675.46849 -16740729.24748  21037539.2584   21037540.2274   21037539.572
        56.0004         52.0004
 20 11  7  0 26 30.0000000  0  8G30G05G06G09G29G07G13G02
  -1205269.45547   -898859.28046  24922045.9444   24922054.4644   24922046.438
        43.0004         38.0004
 -21560546.32849 -16780802.25849  20725476.6254   20725478.7824   20725476.311
        59.0004         55.0004
 -12331039.62048  -9566244.68347  22648953.1304   22648957.7024   22648953.340
        50.0004         45.0004
  -7488504.39747  -5798844.19047  23657647.2504   23657653.2664   23657647.036
        46.0004         42.0004
  -9143362.68048  -7068701.87548  23200015.9794   23200018.0524   23200016.389
        53.0004         49.0004
  -1139107.37047   -864884.38346  24779473.5354   24779475.2724   24779471.719
        44.0004         39.0004
  -2958534.83647  -2245443.70246  23454915.2474   23454918.0504   23454914.865
        45.0004         40.0004
 -21535811.29249 -16741614.31748  21037323.1674   21037324.0534   21037323.753
        56.0004         52.0004
 20 11  7  0 27  0.0000000  0  8G30G05G06G09G29G07G13G02
  -1281605.39747   -958341.75046  24907521.0074   24907527.7344   24907522.260
        43.0004         38.0004
 -21593588.99849 -16806549.79949  20719188.8084   20719191.0654   20719188.589
        59.0004         55.0004
 -12252614.12048  -9505133.93247  22663876.9464   22663882.8414   22663875.792
        49.0004         44.0004
  -7398700.85147  -5728867.42147  23674735.8084   23674741.8454   23674735.359
        46.0004         42.0004
  -9217731.98649  -7126651.97448  23185864.2394   23185866.1264   23185864.387
        54.0004         49.0004
  -1185394.82747   -900952.50846  24770664.7674   24770668.9104   24770664.256
        44.0004         39.0004
  -3071276.46747  -2333294.31246  23433461.0554   23433464.0314   23433460.441
        45.0004         41.0004
 -21536589.74249 -16742220.91148  21037175.1204   21037175.8044   21037176.008
        56.0004         52.0004
 20 11  7  0 27 30.0000000  0  8G30G05G06G09G29G07G13G02
  -1357783.46647  -1017701.21046  24893024.9944   24893030.1534   24893026.104
        43.0004         38.0004
 -21626275.96049 -16832020.16349  20712968.7574   20712970.9024   20712968.871
        59.0004         55.0004
 -12173923.82148  -9443816.84647  22678850.9514   22678856.0514   22678851.000
        49.0004         44.0004
  -7308587.84947  -5658649.51146  23691883.9464   23691890.3014   23691883.381
        46.0004         41.0004
  -9291654.14449  -7184253.66448  23171797.2504   23171799.5734   23171797.434
        54.0004         49.0004
  -1231326.09547   -936743.07946  24761923.1664   24761927.3234   24761923.966
        44.0004         39.0004
  -3183839.52647  -2421005.77646  23412042.0714   23412044.7934   23412041.575
        45.0004         41.0004
 -21537010.08949 -16742548.47348  21037095.0804   21037095.9314   21037095.253
        56.0004         51.0004
 20 11  7  0 28  0.0000000  0  8G30G05G06G09G29G07G13G02
  -1433800.45747  -1076935.16046  24878560.2754   24878565.0754   24878557.887
        43.0004         38.0004
 -21658607.41049 -16857213.50049  20706816.0304   20706818.2504   20706815.672
        59.0004         55.0004
 -12094969.29248  -9382293.86047  22693875.5064   22693881.5644   22693874.450
        49.0004         45.0004
  -7218168.00447  -5588192.51446  23709089.8884   23709096.4444   23709089.452
        46.0004         41.0004
  -9365126.77049  -7241505.05248  23157815.2244   23157817.7084   23157815.611
        54.0004         49.0004
  -1276898.64047   -972254.14246  24753251.8784   24753255.3624   24753252.292
        43.0004         39.0004
  -3296221.15447  -2508575.88646  23390655.6504   23390658.4994   23390655.812
        45.0004         41.0004
 -21537071.11149 -16742596.03148  21037083.4664   21037084.0104   21037084.017
        56.0004         51.0004
 20 11  7  0 28 30.0000000  0  8G30G05G06G09G29G07G13G02
  -1509653.59347  -1136041.51146  24864125.1684   24864131.4024   24864123.735
        43.0004         38.0004
 -21690583.33749 -16882129.81149  20700731.4654   20700733.4284   20700731.440
        59.0004         55.0004
 -12015751.28448  -9320565.57347  22708950.6534   22708955.9834   22708950.398
        49.0004         44.0004
  -7127444.02547  -5517498.53446  23726354.6074   23726360.6414   23726353.805
        46.0004         41.0004
  -9438147.02349  -7298403.95048  23143920.1094   23143922.2864   23143919.936
        54.0004         49.0004
